{
  "control": {
    "expires": 43200
  },
  "status": 0,
  "data": {
    "hasNext": false,
    "movieTheatre": [{
      "sellPrice": 47.0,
      "lat": 39.999462,
      "lng": 116.39392,
      "ct": "",
      "addr": "朝阳区湖景东路11号新奥购物中心B1-B2楼（奥体公园玲珑塔旁）",
      "brd": "CGV影城",
      "dis": "亚运村",
      "poiId": 360511,
      "area": "朝阳区",
      "deal": 0,
      "distance": 0,
      "follow": 0,
      "sellmin": 0,
      "sell": true,
      "imax": 0,
      "nm": "CGV星星影城(奥体店)",
      "preferential": 0,
      "brdId": 2020418,
      "dealPrice": 0.0,
      "referencePrice": 40.0,
      "showCount": 0,
      "id": 65
    }, {
      "sellPrice": 59.0,
      "lat": 39.96964,
      "lng": 116.4909,
      "ct": "",
      "addr": "朝阳区酒仙桥路18号颐堤港4层（将台地铁站）",
      "brd": "CGV影城",
      "dis": "酒仙桥",
      "poiId": 1466992,
      "area": "朝阳区",
      "deal": 0,
      "distance": 0,
      "follow": 0,
      "sellmin": 0,
      "sell": true,
      "imax": 0,
      "nm": "CGV星星影城(颐堤港店)",
      "preferential": 0,
      "brdId": 2020418,
      "dealPrice": 0.0,
      "referencePrice": 40.0,
      "showCount": 0,
      "id": 8
    }, {
      "sellPrice": 38.0,
      "lat": 40.033382,
      "lng": 116.41916,
      "ct": "",
      "addr": "朝阳区北苑路42号卜峰莲花超市4楼（K酷时尚广场）",
      "brd": "其它",
      "dis": "亚运村",
      "poiId": 796845,
      "area": "朝阳区",
      "deal": 0,
      "distance": 0,
      "follow": 0,
      "sellmin": 0,
      "sell": true,
      "imax": 0,
      "nm": "K酷国际影城",
      "preferential": 0,
      "brdId": 0,
      "dealPrice": 0.0,
      "referencePrice": 80.0,
      "showCount": 0,
      "id": 21
    }, {
      "sellPrice": 49.5,
      "lat": 39.89549,
      "lng": 116.46074,
      "ct": "",
      "addr": "朝阳区东三环中路65号富力广场北区5层",
      "brd": "UME国际影城",
      "dis": "双井",
      "poiId": 291070,
      "area": "朝阳区",
      "deal": 0,
      "distance": 0,
      "follow": 0,
      "sellmin": 0,
      "sell": true,
      "imax": 0,
      "nm": "UME国际影城(双井店)",
      "preferential": 0,
      "brdId": 24071,
      "dealPrice": 0.0,
      "referencePrice": 70.0,
      "showCount": 0,
      "id": 135
    }, {
      "sellPrice": 34.9,
      "lat": 40.021084,
      "lng": 116.46593,
      "ct": "",
      "addr": "朝阳区来广营西路5号院诚盈中心商业街",
      "brd": "其它",
      "dis": "",
      "poiId": 106343887,
      "area": "朝阳区",
      "deal": 0,
      "distance": 0,
      "follow": 0,
      "sellmin": 0,
      "sell": true,
      "imax": 0,
      "nm": "奥兰环球影城(望京店)",
      "preferential": 0,
      "brdId": 0,
      "dealPrice": 0.0,
      "referencePrice": 0.0,
      "showCount": 0,
      "id": 16421
    }, {
      "sellPrice": 38.0,
      "lat": 39.93605,
      "lng": 116.44939,
      "ct": "",
      "addr": "朝阳区工体北路13号世茂工三3楼，艾米·1895电影街（三里屯商圈）",
      "brd": "其它",
      "dis": "",
      "poiId": 42853106,
      "area": "朝阳区",
      "deal": 0,
      "distance": 0,
      "follow": 0,
      "sellmin": 0,
      "sell": true,
      "imax": 0,
      "nm": "艾米·1895电影街",
      "preferential": 0,
      "brdId": 0,
      "dealPrice": 0.0,
      "referencePrice": 0.0,
      "showCount": 0,
      "id": 13640
    }, {
      "sellPrice": 29.0,
      "lat": 40.016605,
      "lng": 116.465744,
      "ct": "",
      "addr": "朝阳区香宾路66号百安居2层",
      "brd": "其它",
      "dis": "",
      "poiId": 165807827,
      "area": "朝阳区",
      "deal": 0,
      "distance": 0,
      "follow": 0,
      "sellmin": 0,
      "sell": true,
      "imax": 0,
      "nm": "比高电影城(来广营店)",
      "preferential": 0,
      "brdId": 0,
      "dealPrice": 0.0,
      "referencePrice": 0.0,
      "showCount": 0,
      "id": 25139
    }, {
      "sellPrice": 23.0,
      "lat": 39.844444,
      "lng": 116.52732,
      "ct": "",
      "addr": "朝阳区西直河商业广场华联购物广场1楼",
      "brd": "其它",
      "dis": "",
      "poiId": 91811925,
      "area": "朝阳区",
      "deal": 0,
      "distance": 0,
      "follow": 0,
      "sellmin": 0,
      "sell": true,
      "imax": 0,
      "nm": "北京东融国际影城(西直河店)",
      "preferential": 0,
      "brdId": 0,
      "dealPrice": 0.0,
      "referencePrice": 0.0,
      "showCount": 0,
      "id": 15415
    }, {
      "sellPrice": 38.0,
      "lat": 39.99109,
      "lng": 116.40854,
      "ct": "",
      "addr": "朝阳区安慧里三区10号（近慧忠路）",
      "brd": "其它",
      "dis": "亚运村",
      "poiId": 82597,
      "area": "朝阳区",
      "deal": 0,
      "distance": 0,
      "follow": 0,
      "sellmin": 0,
      "sell": true,
      "imax": 0,
      "nm": "北京剧院",
      "preferential": 0,
      "brdId": 0,
      "dealPrice": 0.0,
      "referencePrice": 80.0,
      "showCount": 0,
      "id": 248
    }, {
      "sellPrice": 29.0,
      "lat": 39.951107,
      "lng": 116.54848,
      "ct": "",
      "addr": "朝阳区东坝中路38号金隅嘉品MALL5层",
      "brd": "保利国际影城",
      "dis": "",
      "poiId": 73452594,
      "area": "朝阳区",
      "deal": 0,
      "distance": 0,
      "follow": 0,
      "sellmin": 0,
      "sell": true,
      "imax": 0,
      "nm": "保利国际影城(东坝店)",
      "preferential": 0,
      "brdId": 24472,
      "dealPrice": 0.0,
      "referencePrice": 0.0,
      "showCount": 0,
      "id": 14430
    }, {
      "sellPrice": 39.9,
      "lat": 40.046967,
      "lng": 116.43143,
      "ct": "",
      "addr": "朝阳区清河营南街七号院华贸天地东区B1层",
      "brd": "保利国际影城",
      "dis": "北苑",
      "poiId": 361205,
      "area": "朝阳区",
      "deal": 0,
      "distance": 0,
      "follow": 0,
      "sellmin": 0,
      "sell": true,
      "imax": 0,
      "nm": "保利国际影城(华贸天地店)",
      "preferential": 0,
      "brdId": 24472,
      "dealPrice": 0.0,
      "referencePrice": 25.0,
      "showCount": 0,
      "id": 2603
    }, {
      "sellPrice": 34.0,
      "lat": 40.005745,
      "lng": 116.39992,
      "ct": "",
      "addr": "朝阳区北辰东路5号（鸟巢正北一公里）",
      "brd": "保利国际影城",
      "dis": "亚运村",
      "poiId": 61574,
      "area": "朝阳区",
      "deal": 0,
      "distance": 0,
      "follow": 0,
      "sellmin": 0,
      "sell": true,
      "imax": 0,
      "nm": "保利国际影城(中国科技馆店)",
      "preferential": 0,
      "brdId": 24472,
      "dealPrice": 0.0,
      "referencePrice": 80.0,
      "showCount": 0,
      "id": 40
    }, {
      "sellPrice": 45.0,
      "lat": 39.91279,
      "lng": 116.45982,
      "ct": "",
      "addr": "朝阳区建国门外大街1号国贸商城北区B1层B120",
      "brd": "其它",
      "dis": "国贸",
      "poiId": 3281398,
      "area": "朝阳区",
      "deal": 0,
      "distance": 0,
      "follow": 0,
      "sellmin": 0,
      "sell": true,
      "imax": 0,
      "nm": "百丽宫影城(国贸店)",
      "preferential": 0,
      "brdId": 0,
      "dealPrice": 0.0,
      "referencePrice": 90.0,
      "showCount": 0,
      "id": 23
    }, {
      "sellPrice": 39.0,
      "lat": 39.921932,
      "lng": 116.4385,
      "ct": "",
      "addr": "朝阳区三丰北里2号悠唐购物中心二期B1层",
      "brd": "博纳国际影城",
      "dis": "朝外大街",
      "poiId": 63,
      "area": "朝阳区",
      "deal": 0,
      "distance": 0,
      "follow": 0,
      "sellmin": 0,
      "sell": true,
      "imax": 0,
      "nm": "博纳国际影城(悠唐店)",
      "preferential": 0,
      "brdId": 24595,
      "dealPrice": 0.0,
      "referencePrice": 35.0,
      "showCount": 0,
      "id": 116
    }, {
      "sellPrice": 29.9,
      "lat": 40.010098,
      "lng": 116.372604,
      "ct": "",
      "addr": "朝阳区林萃西里16号楼华创生活广场F1层",
      "brd": "其它",
      "dis": "",
      "poiId": 160306126,
      "area": "朝阳区",
      "deal": 0,
      "distance": 0,
      "follow": 0,
      "sellmin": 0,
      "sell": true,
      "imax": 0,
      "nm": "百誉朗克影城",
      "preferential": 0,
      "brdId": 0,
      "dealPrice": 0.0,
      "referencePrice": 0.0,
      "showCount": 0,
      "id": 23901
    }, {
      "sellPrice": 48.9,
      "lat": 39.963345,
      "lng": 116.457664,
      "ct": "",
      "addr": "朝阳区曙光西里甲5号院24号楼凤凰汇三层",
      "brd": "橙天嘉禾影城",
      "dis": "三元桥",
      "poiId": 1465641,
      "area": "朝阳区",
      "deal": 0,
      "distance": 0,
      "follow": 0,
      "sellmin": 0,
      "sell": true,
      "imax": 0,
      "nm": "橙天嘉禾影城(凤凰城店)",
      "preferential": 0,
      "brdId": 24745,
      "dealPrice": 0.0,
      "referencePrice": 80.0,
      "showCount": 0,
      "id": 2081
    }, {
      "sellPrice": 43.0,
      "lat": 39.922314,
      "lng": 116.462105,
      "ct": "",
      "addr": "朝阳区东三环北路36号呼家楼北（近朝阳北路）",
      "brd": "其它",
      "dis": "亮马桥",
      "poiId": 82595,
      "area": "朝阳区",
      "deal": 0,
      "distance": 0,
      "follow": 0,
      "sellmin": 0,
      "sell": true,
      "imax": 0,
      "nm": "朝阳剧场",
      "preferential": 0,
      "brdId": 0,
      "dealPrice": 0.0,
      "referencePrice": 60.0,
      "showCount": 0,
      "id": 249
    }, {
      "sellPrice": 44.0,
      "lat": 39.885048,
      "lng": 116.48847,
      "ct": "",
      "addr": "朝阳区东四环中路195号华腾新天地五层（近迪卡侬）",
      "brd": "东都影城",
      "dis": "大望路",
      "poiId": 30903,
      "area": "朝阳区",
      "deal": 0,
      "distance": 0,
      "follow": 0,
      "sellmin": 0,
      "sell": true,
      "imax": 0,
      "nm": "东都影城",
      "preferential": 0,
      "brdId": 133085,
      "dealPrice": 0.0,
      "referencePrice": 43.0,
      "showCount": 0,
      "id": 262
    }, {
      "sellPrice": 33.9,
      "lat": 39.856857,
      "lng": 116.50524,
      "ct": "",
      "addr": "朝阳区南杨庄路与武基街交叉口西南方向50米路南（垡头永辉超市，翠城馨园401号楼地下一层）",
      "brd": "大地影院",
      "dis": "",
      "poiId": 41877507,
      "area": "朝阳区",
      "deal": 0,
      "distance": 0,
      "follow": 0,
      "sellmin": 0,
      "sell": true,
      "imax": 0,
      "nm": "大地影院(垡头永辉店)",
      "preferential": 0,
      "brdId": 384262,
      "dealPrice": 0.0,
      "referencePrice": 0.0,
      "showCount": 0,
      "id": 10954
    }, {
      "sellPrice": 38.9,
      "lat": 39.864407,
      "lng": 116.47688,
      "ct": "",
      "addr": "朝阳区西大望南路与弘燕南一路交叉口铭泽生活广场5层",
      "brd": "大地影院",
      "dis": "",
      "poiId": 40086376,
      "area": "朝阳区",
      "deal": 0,
      "distance": 0,
      "follow": 0,
      "sellmin": 0,
      "sell": true,
      "imax": 0,
      "nm": "大地影院(十里河铭泽影院 )",
      "preferential": 0,
      "brdId": 384262,
      "dealPrice": 0.0,
      "referencePrice": 0.0,
      "showCount": 0,
      "id": 10951
    }, {
      "sellPrice": 42.9,
      "lat": 39.99817,
      "lng": 116.47787,
      "ct": "",
      "addr": "朝阳区阜通西大街11号合生·麒麟新天地2层",
      "brd": "大地影院",
      "dis": "",
      "poiId": 4036242,
      "area": "朝阳区",
      "deal": 0,
      "distance": 0,
      "follow": 0,
      "sellmin": 0,
      "sell": true,
      "imax": 0,
      "nm": "大地影院(望京新天地店)",
      "preferential": 0,
      "brdId": 384262,
      "dealPrice": 0.0,
      "referencePrice": 0.0,
      "showCount": 0,
      "id": 7881
    }, {
      "sellPrice": 86.0,
      "lat": 39.957985,
      "lng": 116.48087,
      "ct": "",
      "addr": "朝阳区亮马桥路21号（朝阳公园北门对面）",
      "brd": "其它",
      "dis": "亮马桥",
      "poiId": 271415,
      "area": "朝阳区",
      "deal": 0,
      "distance": 0,
      "follow": 0,
      "sellmin": 0,
      "sell": true,
      "imax": 0,
      "nm": "枫花园汽车电影院(朝阳公园店)",
      "preferential": 0,
      "brdId": 0,
      "dealPrice": 0.0,
      "referencePrice": 100.0,
      "showCount": 0,
      "id": 254
    }, {
      "sellPrice": 33.0,
      "lat": 39.980343,
      "lng": 116.38112,
      "ct": "",
      "addr": "朝阳区祁家豁子8号健翔大厦家乐福超市B1层",
      "brd": "其它",
      "dis": "亚运村",
      "poiId": 1098864,
      "area": "朝阳区",
      "deal": 0,
      "distance": 0,
      "follow": 0,
      "sellmin": 0,
      "sell": true,
      "imax": 0,
      "nm": "活力天宝国际影城",
      "preferential": 0,
      "brdId": 0,
      "dealPrice": 0.0,
      "referencePrice": 80.0,
      "showCount": 0,
      "id": 31
    }, {
      "sellPrice": 58.0,
      "lat": 39.97224,
      "lng": 116.436386,
      "ct": "",
      "addr": "朝阳区七圣中街12号院爱琴海购物中心6层（近地铁13号线光熙门站）",
      "brd": "太平洋电影城",
      "dis": "",
      "poiId": 5948789,
      "area": "朝阳区",
      "deal": 0,
      "distance": 0,
      "follow": 0,
      "sellmin": 0,
      "sell": true,
      "imax": 0,
      "nm": "红星太平洋电影城(爱琴海购物中心店)",
      "preferential": 0,
      "brdId": 28975,
      "dealPrice": 0.0,
      "referencePrice": 0.0,
      "showCount": 0,
      "id": 7619
    }, {
      "sellPrice": 27.0,
      "lat": 39.97731,
      "lng": 116.4066,
      "ct": "",
      "addr": "朝阳区安定路6号环宇荟5层（安贞门地铁站B口）",
      "brd": "其它",
      "dis": "",
      "poiId": 164780255,
      "area": "朝阳区",
      "deal": 0,
      "distance": 0,
      "follow": 0,
      "sellmin": 0,
      "sell": true,
      "imax": 0,
      "nm": "华夏影城(环宇荟店)",
      "preferential": 0,
      "brdId": 0,
      "dealPrice": 0.0,
      "referencePrice": 0.0,
      "showCount": 0,
      "id": 25196
    }, {
      "sellPrice": 41.5,
      "lat": 39.893963,
      "lng": 116.47848,
      "ct": "",
      "addr": "朝阳区西大望路甲22号院1号楼商业部分5层11/12号",
      "brd": "其它",
      "dis": "",
      "poiId": 164888633,
      "area": "朝阳区",
      "deal": 0,
      "distance": 0,
      "follow": 0,
      "sellmin": 0,
      "sell": true,
      "imax": 0,
      "nm": "寰映影城(合生汇店)",
      "preferential": 0,
      "brdId": 0,
      "dealPrice": 0.0,
      "referencePrice": 0.0,
      "showCount": 0,
      "id": 24573
    }, {
      "sellPrice": 28.9,
      "lat": 39.940395,
      "lng": 116.52246,
      "ct": "",
      "addr": "朝阳区姚家园路甲1号活力东方奥特莱斯购物中心4楼（姚家园）",
      "brd": "嘉华国际影城",
      "dis": "",
      "poiId": 2578227,
      "area": "朝阳区",
      "deal": 0,
      "distance": 0,
      "follow": 0,
      "sellmin": 0,
      "sell": true,
      "imax": 0,
      "nm": "嘉华国际影城(活力东方店)",
      "preferential": 0,
      "brdId": 26413,
      "dealPrice": 0.0,
      "referencePrice": 70.0,
      "showCount": 0,
      "id": 5987
    }, {
      "sellPrice": 43.0,
      "lat": 39.96894,
      "lng": 116.42397,
      "ct": "",
      "addr": "朝阳区北三环东路22号（和平东桥，和平东街，樱花东街）",
      "brd": "其它",
      "dis": "左家庄",
      "poiId": 89000,
      "area": "朝阳区",
      "deal": 0,
      "distance": 0,
      "follow": 0,
      "sellmin": 0,
      "sell": true,
      "imax": 0,
      "nm": "金鸡百花影城",
      "preferential": 0,
      "brdId": 0,
      "dealPrice": 0.0,
      "referencePrice": 30.0,
      "showCount": 0,
      "id": 256
    }, {
      "sellPrice": 58.0,
      "lat": 40.00447,
      "lng": 116.41641,
      "ct": "",
      "addr": "朝阳区大屯里金泉购物中心318号楼4层",
      "brd": "其它",
      "dis": "",
      "poiId": 158732678,
      "area": "朝阳区",
      "deal": 0,
      "distance": 0,
      "follow": 0,
      "sellmin": 0,
      "sell": true,
      "imax": 1,
      "nm": "金泉港IMAX国际影城",
      "preferential": 0,
      "brdId": 0,
      "dealPrice": 0.0,
      "referencePrice": 0.0,
      "showCount": 0,
      "id": 23617
    }, {
      "sellPrice": 38.0,
      "lat": 39.88321,
      "lng": 116.45597,
      "ct": "",
      "addr": "朝阳区劲松中街404号",
      "brd": "其它",
      "dis": "劲松",
      "poiId": 82588,
      "area": "朝阳区",
      "deal": 0,
      "distance": 0,
      "follow": 0,
      "sellmin": 0,
      "sell": true,
      "imax": 0,
      "nm": "劲松电影院",
      "preferential": 0,
      "brdId": 0,
      "dealPrice": 0.0,
      "referencePrice": 30.0,
      "showCount": 0,
      "id": 236
    }, {
      "sellPrice": 45.0,
      "lat": 39.924355,
      "lng": 116.51871,
      "ct": "",
      "addr": "朝阳区朝阳北路101号朝阳大悦城商场8层",
      "brd": "金逸影城",
      "dis": "十里堡",
      "poiId": 1548100,
      "area": "朝阳区",
      "deal": 0,
      "distance": 0,
      "follow": 0,
      "sellmin": 0,
      "sell": true,
      "imax": 1,
      "nm": "金逸影城(朝阳大悦城IMAX店)",
      "preferential": 0,
      "brdId": 1079568,
      "dealPrice": 0.0,
      "referencePrice": 80.0,
      "showCount": 0,
      "id": 88
    }, {
      "sellPrice": 35.0,
      "lat": 39.90877,
      "lng": 116.576355,
      "ct": "",
      "addr": "朝阳区双桥路3号东星时尚广场5层（近永辉超市）",
      "brd": "金逸影城",
      "dis": "管庄",
      "poiId": 1439570,
      "area": "朝阳区",
      "deal": 0,
      "distance": 0,
      "follow": 0,
      "sellmin": 0,
      "sell": true,
      "imax": 0,
      "nm": "金逸影城(双桥店)",
      "preferential": 0,
      "brdId": 1079568,
      "dealPrice": 0.0,
      "referencePrice": 0.0,
      "showCount": 0,
      "id": 1692
    }, {
      "sellPrice": 66.0,
      "lat": 39.91955,
      "lng": 116.44965,
      "ct": "",
      "addr": "朝阳区东大桥路9号侨福芳草地购物中心LG2-26（尚都SOHO对面）",
      "brd": "卢米埃影城",
      "dis": "",
      "poiId": 332108,
      "area": "朝阳区",
      "deal": 0,
      "distance": 0,
      "follow": 0,
      "sellmin": 0,
      "sell": true,
      "imax": 0,
      "nm": "卢米埃影城(芳草地店)",
      "preferential": 0,
      "brdId": 292030,
      "dealPrice": 0.0,
      "referencePrice": 50.0,
      "showCount": 0,
      "id": 5736
    }, {
      "sellPrice": 49.0,
      "lat": 39.92509,
      "lng": 116.60262,
      "ct": "",
      "addr": "朝阳区朝阳北路长楹天街购物中心东区5F-09",
      "brd": "卢米埃影城",
      "dis": "",
      "poiId": 52539636,
      "area": "朝阳区",
      "deal": 0,
      "distance": 0,
      "follow": 0,
      "sellmin": 0,
      "sell": true,
      "imax": 1,
      "nm": "卢米埃影城(长楹天街IMAX店)",
      "preferential": 0,
      "brdId": 292030,
      "dealPrice": 0.0,
      "referencePrice": 0.0,
      "showCount": 0,
      "id": 13204
    }, {
      "sellPrice": 35.0,
      "lat": 40.04711,
      "lng": 116.4083,
      "ct": "",
      "addr": "朝阳区立清路明天第一城7号院，蓝黛时空汇内",
      "brd": "鲁信影城",
      "dis": "北苑家园",
      "poiId": 1541423,
      "area": "朝阳区",
      "deal": 0,
      "distance": 0,
      "follow": 0,
      "sellmin": 0,
      "sell": true,
      "imax": 0,
      "nm": "鲁信影城(立水桥店)",
      "preferential": 0,
      "brdId": 27424,
      "dealPrice": 0.0,
      "referencePrice": 70.0,
      "showCount": 0,
      "id": 1732
    }, {
      "sellPrice": 45.0,
      "lat": 39.934753,
      "lng": 116.44457,
      "ct": "",
      "addr": "朝阳区工体北路21号永利国际购物中心B1",
      "brd": "其它",
      "dis": "",
      "poiId": 150108303,
      "area": "朝阳区",
      "deal": 0,
      "distance": 0,
      "follow": 0,
      "sellmin": 0,
      "sell": true,
      "imax": 0,
      "nm": "米高梅国际影城(工体店)",
      "preferential": 0,
      "brdId": 0,
      "dealPrice": 0.0,
      "referencePrice": 0.0,
      "showCount": 0,
      "id": 16813
    }, {
      "sellPrice": 49.0,
      "lat": 39.93429,
      "lng": 116.454384,
      "ct": "",
      "addr": "朝阳区三里屯北路19号三里屯太古里南区B2层",
      "brd": "美嘉欢乐影城",
      "dis": "三里屯",
      "poiId": 30915,
      "area": "朝阳区",
      "deal": 0,
      "distance": 0,
      "follow": 0,
      "sellmin": 0,
      "sell": true,
      "imax": 0,
      "nm": "美嘉欢乐影城(三里屯店)",
      "preferential": 0,
      "brdId": 27617,
      "dealPrice": 0.0,
      "referencePrice": 80.0,
      "showCount": 0,
      "id": 136
    }, {
      "sellPrice": 33.0,
      "lat": 39.92012,
      "lng": 116.44342,
      "ct": "",
      "addr": "朝阳区日坛国际酒店地下一层",
      "brd": "其它",
      "dis": "",
      "poiId": 108119917,
      "area": "朝阳区",
      "deal": 0,
      "distance": 0,
      "follow": 0,
      "sellmin": 0,
      "sell": true,
      "imax": 0,
      "nm": "米瑞酷影城(日坛店)",
      "preferential": 0,
      "brdId": 0,
      "dealPrice": 0.0,
      "referencePrice": 0.0,
      "showCount": 0,
      "id": 16179
    }, {
      "sellPrice": 39.0,
      "lat": 39.994465,
      "lng": 116.45678,
      "ct": "",
      "addr": "朝阳区望京西路41号梦秀商场6层",
      "brd": "其它",
      "dis": "",
      "poiId": 152364320,
      "area": "朝阳区",
      "deal": 0,
      "distance": 0,
      "follow": 0,
      "sellmin": 0,
      "sell": true,
      "imax": 0,
      "nm": "明星时代影城(梦秀店)",
      "preferential": 0,
      "brdId": 0,
      "dealPrice": 0.0,
      "referencePrice": 0.0,
      "showCount": 0,
      "id": 17139
    }, {
      "sellPrice": 75.0,
      "lat": 39.93304,
      "lng": 116.459206,
      "ct": "",
      "addr": "朝阳区工人体育场北路盈科中心B座1层",
      "brd": "其它",
      "dis": "",
      "poiId": 160246406,
      "area": "朝阳区",
      "deal": 0,
      "distance": 0,
      "follow": 0,
      "sellmin": 0,
      "sell": true,
      "imax": 0,
      "nm": "三克影院(三里屯盈科店)",
      "preferential": 0,
      "brdId": 0,
      "dealPrice": 0.0,
      "referencePrice": 0.0,
      "showCount": 0,
      "id": 23886
    }, {
      "sellPrice": 45.0,
      "lat": 39.916237,
      "lng": 116.45202,
      "ct": "",
      "addr": "朝阳区光华路9号世贸天阶商业南街B1层",
      "brd": "其它",
      "dis": "",
      "poiId": 150027704,
      "area": "朝阳区",
      "deal": 0,
      "distance": 0,
      "follow": 0,
      "sellmin": 0,
      "sell": true,
      "imax": 0,
      "nm": "世贸天阶中影星美国际影城",
      "preferential": 0,
      "brdId": 0,
      "dealPrice": 0.0,
      "referencePrice": 0.0,
      "showCount": 0,
      "id": 16773
    }, {
      "sellPrice": 38.0,
      "lat": 40.04404,
      "lng": 116.41106,
      "ct": "",
      "addr": "朝阳区安立路3号1幢1层106",
      "brd": "其它",
      "dis": "",
      "poiId": 160457446,
      "area": "朝阳区",
      "deal": 0,
      "distance": 0,
      "follow": 0,
      "sellmin": 0,
      "sell": true,
      "imax": 0,
      "nm": "泰禾影城(立水桥店)",
      "preferential": 0,
      "brdId": 0,
      "dealPrice": 0.0,
      "referencePrice": 0.0,
      "showCount": 0,
      "id": 23967
    }, {
      "sellPrice": 45.5,
      "lat": 39.909027,
      "lng": 116.4709,
      "ct": "",
      "addr": "朝阳区建国路93号万达广场B座3层",
      "brd": "万达影城",
      "dis": "大望路",
      "poiId": 30863,
      "area": "朝阳区",
      "deal": 0,
      "distance": 0,
      "follow": 0,
      "sellmin": 0,
      "sell": true,
      "imax": 1,
      "nm": "万达国际影城(CBD店)",
      "preferential": 0,
      "brdId": 102642,
      "dealPrice": 0.0,
      "referencePrice": 80.0,
      "showCount": 0,
      "id": 264
    }, {
      "sellPrice": 35.5,
      "lat": 39.998497,
      "lng": 116.481926,
      "ct": "",
      "addr": "朝阳区望京阜通西大街新荟城购物中心五层（近橄榄城）",
      "brd": "万达影城",
      "dis": "望京",
      "poiId": 1107541,
      "area": "朝阳区",
      "deal": 0,
      "distance": 0,
      "follow": 0,
      "sellmin": 0,
      "sell": true,
      "imax": 0,
      "nm": "万达影城(望京保利光魔店)",
      "preferential": 0,
      "brdId": 102642,
      "dealPrice": 0.0,
      "referencePrice": 70.0,
      "showCount": 0,
      "id": 39
    }, {
      "sellPrice": 39.8,
      "lat": 39.9684,
      "lng": 116.46204,
      "ct": "",
      "addr": "朝阳区京顺路111号比如世界购物中心1层（近太阳宫北街）",
      "brd": "其它",
      "dis": "望京",
      "poiId": 75603,
      "area": "朝阳区",
      "deal": 0,
      "distance": 0,
      "follow": 0,
      "sellmin": 0,
      "sell": true,
      "imax": 0,
      "nm": "完美世界影城(17.5比如店)",
      "preferential": 0,
      "brdId": 0,
      "dealPrice": 0.0,
      "referencePrice": 70.0,
      "showCount": 0,
      "id": 48
    }, {
      "sellPrice": 34.8,
      "lat": 39.912422,
      "lng": 116.596085,
      "ct": "",
      "addr": "朝阳区朝阳路京通苑30号楼L307PLus365购物中心三层",
      "brd": "17.5影城",
      "dis": "管庄",
      "poiId": 1677952,
      "area": "朝阳区",
      "deal": 0,
      "distance": 0,
      "follow": 0,
      "sellmin": 0,
      "sell": true,
      "imax": 0,
      "nm": "完美世界影城(17.5管庄店)",
      "preferential": 0,
      "brdId": 23854,
      "dealPrice": 0.0,
      "referencePrice": 60.0,
      "showCount": 0,
      "id": 2243
    }, {
      "sellPrice": 39.0,
      "lat": 39.926247,
      "lng": 116.59568,
      "ct": "",
      "addr": "朝阳区朝阳北路17号华联购物中心西区4层",
      "brd": "沃美影城",
      "dis": "",
      "poiId": 5529977,
      "area": "朝阳区",
      "deal": 0,
      "distance": 0,
      "follow": 0,
      "sellmin": 0,
      "sell": true,
      "imax": 0,
      "nm": "沃美影城(常营店)",
      "preferential": 0,
      "brdId": 29462,
      "dealPrice": 0.0,
      "referencePrice": 0.0,
      "showCount": 0,
      "id": 8065
    }, {
      "sellPrice": 38.0,
      "lat": 40.05452,
      "lng": 116.41205,
      "ct": "",
      "addr": "朝阳区立汤路201号东亚奥北南区北门一楼（华泰汽车斜对面，立水桥地铁A口北行150米）",
      "brd": "其它",
      "dis": "",
      "poiId": 3260787,
      "area": "朝阳区",
      "deal": 0,
      "distance": 0,
      "follow": 0,
      "sellmin": 0,
      "sell": true,
      "imax": 0,
      "nm": "星环影城(立水桥店)",
      "preferential": 0,
      "brdId": 0,
      "dealPrice": 0.0,
      "referencePrice": 60.0,
      "showCount": 0,
      "id": 9914
    }, {
      "sellPrice": 35.0,
      "lat": 39.917755,
      "lng": 116.45232,
      "ct": "",
      "addr": "朝阳区金汇路8号世界城E座B1楼（世贸天阶商业街北侧）",
      "brd": "星美国际影城",
      "dis": "朝外大街",
      "poiId": 316112,
      "area": "朝阳区",
      "deal": 0,
      "distance": 0,
      "follow": 0,
      "sellmin": 0,
      "sell": true,
      "imax": 0,
      "nm": "星美国际影商城(世界城店)",
      "preferential": 0,
      "brdId": 30032,
      "dealPrice": 0.0,
      "referencePrice": 35.0,
      "showCount": 0,
      "id": 98
    }, {
      "sellPrice": 39.0,
      "lat": 40.01051,
      "lng": 116.46821,
      "ct": "",
      "addr": "朝阳区广顺北大街16号望京华彩商业中心B1a",
      "brd": "华谊兄弟影院",
      "dis": "望京",
      "poiId": 82583,
      "area": "朝阳区",
      "deal": 0,
      "distance": 0,
      "follow": 0,
      "sellmin": 0,
      "sell": true,
      "imax": 0,
      "nm": "新影联·华谊兄弟影院(望京店)",
      "preferential": 0,
      "brdId": 275830,
      "dealPrice": 0.0,
      "referencePrice": 80.0,
      "showCount": 0,
      "id": 72
    }, {
      "sellPrice": 43.0,
      "lat": 39.90758,
      "lng": 116.444916,
      "ct": "",
      "addr": "朝阳区建外大街丁12号英皇集团中心B1层",
      "brd": "其它",
      "dis": "",
      "poiId": 170577418,
      "area": "朝阳区",
      "deal": 0,
      "distance": 0,
      "follow": 0,
      "sellmin": 0,
      "sell": true,
      "imax": 0,
      "nm": "英皇电影城(英皇中心店)",
      "preferential": 0,
      "brdId": 0,
      "dealPrice": 0.0,
      "referencePrice": 0.0,
      "showCount": 0,
      "id": 25274
    }, {
      "sellPrice": 43.0,
      "lat": 39.916008,
      "lng": 116.49176,
      "ct": "",
      "addr": "朝阳区东四环中路58号远洋未来汇C座2层",
      "brd": "耀莱成龙国际影城",
      "dis": "",
      "poiId": 4230363,
      "area": "朝阳区",
      "deal": 0,
      "distance": 0,
      "follow": 0,
      "sellmin": 0,
      "sell": true,
      "imax": 0,
      "nm": "耀莱成龙国际影城(慈云寺店)",
      "preferential": 0,
      "brdId": 30227,
      "dealPrice": 0.0,
      "referencePrice": 0.0,
      "showCount": 0,
      "id": 9730
    }, {
      "sellPrice": 300.0,
      "lat": 39.911377,
      "lng": 116.47858,
      "ct": "",
      "addr": "朝阳区建国路89号18号楼L02内",
      "brd": "耀莱成龙国际影城",
      "dis": "",
      "poiId": 161066185,
      "area": "朝阳区",
      "deal": 0,
      "distance": 0,
      "follow": 0,
      "sellmin": 0,
      "sell": true,
      "imax": 0,
      "nm": "耀莱成龙国际影城(华贸店)",
      "preferential": 0,
      "brdId": 30227,
      "dealPrice": 0.0,
      "referencePrice": 0.0,
      "showCount": 0,
      "id": 23993
    }, {
      "sellPrice": 23.0,
      "lat": 40.026527,
      "lng": 116.41191,
      "ct": "",
      "addr": "朝阳区安立路28号院华创生活广场1层",
      "brd": "其它",
      "dis": "",
      "poiId": 170567772,
      "area": "朝阳区",
      "deal": 0,
      "distance": 0,
      "follow": 0,
      "sellmin": 0,
      "sell": true,
      "imax": 0,
      "nm": "元影城",
      "preferential": 0,
      "brdId": 0,
      "dealPrice": 0.0,
      "referencePrice": 0.0,
      "showCount": 0,
      "id": 25270
    }, {
      "sellPrice": 23.0,
      "lat": 39.96802,
      "lng": 116.40147,
      "ct": "",
      "addr": "朝阳区安华西里甲1号",
      "brd": "其它",
      "dis": "安贞",
      "poiId": 82596,
      "area": "朝阳区",
      "deal": 0,
      "distance": 0,
      "follow": 0,
      "sellmin": 0,
      "sell": true,
      "imax": 0,
      "nm": "中国木偶艺术剧院",
      "preferential": 0,
      "brdId": 0,
      "dealPrice": 0.0,
      "referencePrice": 0.0,
      "showCount": 0,
      "id": 252
    }, {
      "sellPrice": 33.0,
      "lat": 39.922623,
      "lng": 116.44817,
      "ct": "",
      "addr": "朝阳区朝外大街8号（蓝岛大厦西区5-6层）",
      "brd": "其它",
      "dis": "朝外大街",
      "poiId": 3274641,
      "area": "朝阳区",
      "deal": 0,
      "distance": 0,
      "follow": 0,
      "sellmin": 0,
      "sell": true,
      "imax": 0,
      "nm": "紫光影城(蓝岛店)",
      "preferential": 0,
      "brdId": 0,
      "dealPrice": 0.0,
      "referencePrice": 35.0,
      "showCount": 0,
      "id": 259
    }, {
      "sellPrice": 39.5,
      "lat": 39.948925,
      "lng": 116.47621,
      "ct": "",
      "addr": "朝阳区朝阳公园路6号蓝色港湾国际商区SA-42（朝阳公园西北角）",
      "brd": "其它",
      "dis": "亮马桥",
      "poiId": 297916,
      "area": "朝阳区",
      "deal": 0,
      "distance": 0,
      "follow": 0,
      "sellmin": 0,
      "sell": true,
      "imax": 0,
      "nm": "珠影耳东传奇影城",
      "preferential": 0,
      "brdId": 0,
      "dealPrice": 0.0,
      "referencePrice": 40.0,
      "showCount": 0,
      "id": 132
    }, {
      "sellPrice": 33.0,
      "lat": 39.948593,
      "lng": 116.45831,
      "ct": "",
      "addr": "朝阳区新源南路甲2号华谊兄弟办公楼首层",
      "brd": "华谊兄弟影院",
      "dis": "",
      "poiId": 112208438,
      "area": "朝阳区",
      "deal": 0,
      "distance": 0,
      "follow": 0,
      "sellmin": 0,
      "sell": false,
      "imax": 0,
      "nm": "华谊兄弟电影汇",
      "preferential": 0,
      "brdId": 275830,
      "dealPrice": 0.0,
      "referencePrice": 0.0,
      "showCount": 0,
      "id": 16467
    }, {
      "sellPrice": 0.0,
      "lat": 39.861492,
      "lng": 116.51347,
      "ct": "",
      "addr": "朝阳区垡头西里44号垡头文化中心B1（近垡头市场）",
      "brd": "其它",
      "dis": "垡头西里",
      "poiId": 3305306,
      "area": "朝阳区",
      "deal": 0,
      "distance": 0,
      "follow": 0,
      "sellmin": 0,
      "sell": false,
      "imax": 0,
      "nm": "曙光影院",
      "preferential": 0,
      "brdId": 0,
      "dealPrice": 0.0,
      "referencePrice": 0.0,
      "showCount": 0,
      "id": 4548
    }, {
      "sellPrice": 38.0,
      "lat": 39.997986,
      "lng": 116.409164,
      "ct": "",
      "addr": "朝阳区安立路68号飘亮广场B1层（近北辰购物中心）",
      "brd": "阳光影城",
      "dis": "亚运村",
      "poiId": 90846,
      "area": "朝阳区",
      "deal": 0,
      "distance": 0,
      "follow": 0,
      "sellmin": 0,
      "sell": false,
      "imax": 0,
      "nm": "阳光影城(安立路店)",
      "preferential": 0,
      "brdId": 30206,
      "dealPrice": 0.0,
      "referencePrice": 70.0,
      "showCount": 0,
      "id": 174
    }, {
      "sellPrice": 0.0,
      "lat": 39.9962,
      "lng": 116.521,
      "ct": "",
      "addr": "朝阳区南影路9号",
      "brd": "其它",
      "dis": "草场地",
      "poiId": 1436410,
      "area": "朝阳区",
      "deal": 0,
      "distance": 0,
      "follow": 0,
      "sellmin": 0,
      "sell": false,
      "imax": 1,
      "nm": "中国电影博物馆",
      "preferential": 0,
      "brdId": 0,
      "dealPrice": 0.0,
      "referencePrice": 40.0,
      "showCount": 0,
      "id": 181
    }],
    "海淀区": [{
      "sellPrice": 45.0,
      "lat": 39.95334,
      "lng": 116.36104,
      "ct": "",
      "addr": "海淀区文慧园北路9号今典花园9号二层",
      "brd": "17.5影城",
      "dis": "北太平庄",
      "poiId": 273950,
      "area": "海淀区",
      "deal": 0,
      "distance": 0,
      "follow": 0,
      "sellmin": 0,
      "sell": true,
      "imax": 0,
      "nm": "1+x电影生活空间今典花园店(原17.5影城)",
      "preferential": 0,
      "brdId": 23854,
      "dealPrice": 0.0,
      "referencePrice": 60.0,
      "showCount": 0,
      "id": 154
    }, {
      "sellPrice": 47.0,
      "lat": 40.030476,
      "lng": 116.334724,
      "ct": "",
      "addr": "海淀区清河中街68号华润五彩城购物中心东区7层",
      "brd": "CGV影城",
      "dis": "",
      "poiId": 2374984,
      "area": "海淀区",
      "deal": 0,
      "distance": 0,
      "follow": 0,
      "sellmin": 0,
      "sell": true,
      "imax": 0,
      "nm": "CGV影城(清河店)",
      "preferential": 0,
      "brdId": 2020418,
      "dealPrice": 0.0,
      "referencePrice": 40.0,
      "showCount": 0,
      "id": 5111
    }, {
      "sellPrice": 39.5,
      "lat": 39.967793,
      "lng": 116.326096,
      "ct": "",
      "addr": "海淀区双榆树科学院南路44号（双安商场对面）",
      "brd": "UME国际影城",
      "dis": "中关村",
      "poiId": 1436373,
      "area": "海淀区",
      "deal": 0,
      "distance": 0,
      "follow": 0,
      "sellmin": 0,
      "sell": true,
      "imax": 1,
      "nm": "UME国际影城(华星店)",
      "preferential": 0,
      "brdId": 24071,
      "dealPrice": 0.0,
      "referencePrice": 70.0,
      "showCount": 0,
      "id": 155
    }, {
      "sellPrice": 44.0,
      "lat": 39.908405,
      "lng": 116.29659,
      "ct": "",
      "addr": "海淀区复兴路51号凯德晶品购物中心4层",
      "brd": "博纳国际影城",
      "dis": "万寿路",
      "poiId": 1460949,
      "area": "海淀区",
      "deal": 0,
      "distance": 0,
      "follow": 0,
      "sellmin": 0,
      "sell": true,
      "imax": 0,
      "nm": "博纳国际影城(万寿路店)",
      "preferential": 0,
      "brdId": 24595,
      "dealPrice": 0.0,
      "referencePrice": 80.0,
      "showCount": 0,
      "id": 1624
    }, {
      "sellPrice": 33.9,
      "lat": 39.922768,
      "lng": 116.25956,
      "ct": "",
      "addr": "海淀区玉海园五里22号配套商业楼（原吉彩体育馆）",
      "brd": "橙天嘉禾影城",
      "dis": "",
      "poiId": 2393106,
      "area": "海淀区",
      "deal": 0,
      "distance": 0,
      "follow": 0,
      "sellmin": 0,
      "sell": true,
      "imax": 0,
      "nm": "橙天嘉禾影城(吉彩店)",
      "preferential": 0,
      "brdId": 24745,
      "dealPrice": 0.0,
      "referencePrice": 80.0,
      "showCount": 0,
      "id": 5313
    }, {
      "sellPrice": 45.9,
      "lat": 40.02865,
      "lng": 116.31154,
      "ct": "",
      "addr": "海淀区上地南口华联商厦4F（近上地南口）",
      "brd": "橙天嘉禾影城",
      "dis": "上地",
      "poiId": 14447,
      "area": "海淀区",
      "deal": 0,
      "distance": 0,
      "follow": 0,
      "sellmin": 0,
      "sell": true,
      "imax": 0,
      "nm": "橙天嘉禾影城(上地店)",
      "preferential": 0,
      "brdId": 24745,
      "dealPrice": 0.0,
      "referencePrice": 80.0,
      "showCount": 0,
      "id": 130
    }, {
      "sellPrice": 43.9,
      "lat": 39.97296,
      "lng": 116.29486,
      "ct": "",
      "addr": "海淀区巴沟路2号华联万柳购物中心5层",
      "brd": "橙天嘉禾影城",
      "dis": "苏州桥",
      "poiId": 3303603,
      "area": "海淀区",
      "deal": 0,
      "distance": 0,
      "follow": 0,
      "sellmin": 0,
      "sell": true,
      "imax": 0,
      "nm": "橙天嘉禾影城(万柳店)",
      "preferential": 0,
      "brdId": 24745,
      "dealPrice": 0.0,
      "referencePrice": 80.0,
      "showCount": 0,
      "id": 86
    }, {
      "sellPrice": 33.9,
      "lat": 40.04733,
      "lng": 116.33703,
      "ct": "",
      "addr": "海淀区悦秀路99号二层",
      "brd": "大地影院",
      "dis": "",
      "poiId": 4845675,
      "area": "海淀区",
      "deal": 0,
      "distance": 0,
      "follow": 0,
      "sellmin": 0,
      "sell": true,
      "imax": 0,
      "nm": "大地影院(西三旗物美店)",
      "preferential": 0,
      "brdId": 384262,
      "dealPrice": 0.0,
      "referencePrice": 0.0,
      "showCount": 0,
      "id": 7433
    }, {
      "sellPrice": 33.0,
      "lat": 40.04362,
      "lng": 116.35009,
      "ct": "",
      "addr": "海淀区文龙家园四里4号楼4F-08",
      "brd": "其它",
      "dis": "",
      "poiId": 165628440,
      "area": "海淀区",
      "deal": 0,
      "distance": 0,
      "follow": 0,
      "sellmin": 0,
      "sell": true,
      "imax": 0,
      "nm": "东融国际影城(西小口店)",
      "preferential": 0,
      "brdId": 0,
      "dealPrice": 0.0,
      "referencePrice": 0.0,
      "showCount": 0,
      "id": 25045
    }, {
      "sellPrice": 33.0,
      "lat": 39.94304,
      "lng": 116.32312,
      "ct": "",
      "addr": "海淀区中关村南大街33号国家图书馆内",
      "brd": "其它",
      "dis": "魏公村",
      "poiId": 271442,
      "area": "海淀区",
      "deal": 0,
      "distance": 0,
      "follow": 0,
      "sellmin": 0,
      "sell": true,
      "imax": 0,
      "nm": "国图影院",
      "preferential": 0,
      "brdId": 0,
      "dealPrice": 0.0,
      "referencePrice": 60.0,
      "showCount": 0,
      "id": 238
    }, {
      "sellPrice": 23.0,
      "lat": 39.971443,
      "lng": 116.295105,
      "ct": "",
      "addr": "海淀区万柳华府北街2号（万柳华联商城南门对面）",
      "brd": "其它",
      "dis": "苏州桥",
      "poiId": 38025,
      "area": "海淀区",
      "deal": 0,
      "distance": 0,
      "follow": 0,
      "sellmin": 0,
      "sell": true,
      "imax": 0,
      "nm": "海淀工人文化宫",
      "preferential": 0,
      "brdId": 0,
      "dealPrice": 0.0,
      "referencePrice": 30.0,
      "showCount": 0,
      "id": 141
    }, {
      "sellPrice": 33.0,
      "lat": 39.97669,
      "lng": 116.31822,
      "ct": "",
      "addr": "海淀区中关村大街28号",
      "brd": "其它",
      "dis": "中关村",
      "poiId": 17899,
      "area": "海淀区",
      "deal": 0,
      "distance": 0,
      "follow": 0,
      "sellmin": 0,
      "sell": true,
      "imax": 0,
      "nm": "海淀剧院",
      "preferential": 0,
      "brdId": 0,
      "dealPrice": 0.0,
      "referencePrice": 80.0,
      "showCount": 0,
      "id": 257
    }, {
      "sellPrice": 43.0,
      "lat": 40.01592,
      "lng": 116.27105,
      "ct": "",
      "addr": "海淀区龙背村路99号院北京华联龙背购物中心",
      "brd": "其它",
      "dis": "",
      "poiId": 166727606,
      "area": "海淀区",
      "deal": 0,
      "distance": 0,
      "follow": 0,
      "sellmin": 0,
      "sell": true,
      "imax": 0,
      "nm": "华联影院(肖家河店)",
      "preferential": 0,
      "brdId": 0,
      "dealPrice": 0.0,
      "referencePrice": 0.0,
      "showCount": 0,
      "id": 25172
    }, {
      "sellPrice": 28.9,
      "lat": 40.008587,
      "lng": 116.35387,
      "ct": "",
      "addr": "海淀区学清路甲8号圣熙8号购物中心5层西侧（学清路）",
      "brd": "嘉华国际影城",
      "dis": "五道口",
      "poiId": 84440,
      "area": "海淀区",
      "deal": 0,
      "distance": 0,
      "follow": 0,
      "sellmin": 0,
      "sell": true,
      "imax": 0,
      "nm": "嘉华国际影城(学清路店)",
      "preferential": 0,
      "brdId": 26413,
      "dealPrice": 0.0,
      "referencePrice": 70.0,
      "showCount": 0,
      "id": 70
    }, {
      "sellPrice": 30.0,
      "lat": 40.060005,
      "lng": 116.36541,
      "ct": "",
      "addr": "海淀区西三旗建材城中路6号新都购物广场1层",
      "brd": "金逸影城",
      "dis": "清河",
      "poiId": 1549060,
      "area": "海淀区",
      "deal": 0,
      "distance": 0,
      "follow": 0,
      "sellmin": 0,
      "sell": true,
      "imax": 0,
      "nm": "金逸影城(新都店)",
      "preferential": 0,
      "brdId": 1079568,
      "dealPrice": 0.0,
      "referencePrice": 60.0,
      "showCount": 0,
      "id": 58
    }, {
      "sellPrice": 50.0,
      "lat": 39.978382,
      "lng": 116.31445,
      "ct": "",
      "addr": "海淀区中关村大街19号新中关购物中心B1层",
      "brd": "金逸影城",
      "dis": "中关村",
      "poiId": 276722,
      "area": "海淀区",
      "deal": 0,
      "distance": 0,
      "follow": 0,
      "sellmin": 0,
      "sell": true,
      "imax": 0,
      "nm": "金逸影城(中关村店)",
      "preferential": 0,
      "brdId": 1079568,
      "dealPrice": 0.0,
      "referencePrice": 80.0,
      "showCount": 0,
      "id": 152
    }, {
      "sellPrice": 45.0,
      "lat": 39.983105,
      "lng": 116.31355,
      "ct": "",
      "addr": "海淀区中关村大街15号中关村广场购物中心津乐汇3楼（地铁中关村站D口出西侧）",
      "brd": "美嘉欢乐影城",
      "dis": "三里屯",
      "poiId": 279439,
      "area": "海淀区",
      "deal": 0,
      "distance": 0,
      "follow": 0,
      "sellmin": 0,
      "sell": true,
      "imax": 0,
      "nm": "美嘉欢乐影城(中关村店)",
      "preferential": 0,
      "brdId": 27617,
      "dealPrice": 0.0,
      "referencePrice": 80.0,
      "showCount": 0,
      "id": 197
    }, {
      "sellPrice": 53.0,
      "lat": 39.960518,
      "lng": 116.28797,
      "ct": "",
      "addr": "海淀区远大路1号院B座五楼西侧001号（居然之家材料馆楼上）",
      "brd": "其它",
      "dis": "",
      "poiId": 156803662,
      "area": "海淀区",
      "deal": 0,
      "distance": 0,
      "follow": 0,
      "sellmin": 0,
      "sell": true,
      "imax": 0,
      "nm": "魔影国际影城(金源店)",
      "preferential": 0,
      "brdId": 0,
      "dealPrice": 0.0,
      "referencePrice": 0.0,
      "showCount": 0,
      "id": 17304
    }, {
      "sellPrice": 31.0,
      "lat": 39.969345,
      "lng": 116.3678,
      "ct": "",
      "addr": "海淀区北三环中路中视云投大厦（北太平桥西远望楼宾馆中央新影集团）",
      "brd": "其它",
      "dis": "",
      "poiId": 4480546,
      "area": "海淀区",
      "deal": 0,
      "distance": 0,
      "follow": 0,
      "sellmin": 0,
      "sell": true,
      "imax": 0,
      "nm": "天幕新彩云国际影城",
      "preferential": 0,
      "brdId": 0,
      "dealPrice": 0.0,
      "referencePrice": 0.0,
      "showCount": 0,
      "id": 13003
    }, {
      "sellPrice": 39.0,
      "lat": 39.98476,
      "lng": 116.32643,
      "ct": "",
      "addr": "海淀区融科资讯中心B座-1-2",
      "brd": "太平洋电影城",
      "dis": "",
      "poiId": 158401435,
      "area": "海淀区",
      "deal": 0,
      "distance": 0,
      "follow": 0,
      "sellmin": 0,
      "sell": true,
      "imax": 0,
      "nm": "太平洋影城(北京中关村店)",
      "preferential": 0,
      "brdId": 28975,
      "dealPrice": 0.0,
      "referencePrice": 0.0,
      "showCount": 0,
      "id": 17421
    }, {
      "sellPrice": 43.0,
      "lat": 39.94469,
      "lng": 116.27137,
      "ct": "",
      "addr": "海淀区西四环北路金四季购物中心中段三层B003",
      "brd": "其它",
      "dis": "",
      "poiId": 41066531,
      "area": "海淀区",
      "deal": 0,
      "distance": 0,
      "follow": 0,
      "sellmin": 0,
      "sell": true,
      "imax": 0,
      "nm": "万画影城(四季青店)",
      "preferential": 0,
      "brdId": 0,
      "dealPrice": 0.0,
      "referencePrice": 0.0,
      "showCount": 0,
      "id": 13054
    }, {
      "sellPrice": 43.0,
      "lat": 39.93043,
      "lng": 116.2541,
      "ct": "",
      "addr": "海淀区田村路43号京粮广场二层北侧",
      "brd": "其它",
      "dis": "",
      "poiId": 97764971,
      "area": "海淀区",
      "deal": 0,
      "distance": 0,
      "follow": 0,
      "sellmin": 0,
      "sell": true,
      "imax": 0,
      "nm": "万画影城(田村店)",
      "preferential": 0,
      "brdId": 0,
      "dealPrice": 0.0,
      "referencePrice": 0.0,
      "showCount": 0,
      "id": 16821
    }, {
      "sellPrice": 31.9,
      "lat": 39.959427,
      "lng": 116.34575,
      "ct": "",
      "addr": "海淀区大钟寺四道口2号京果商厦B座三层北侧",
      "brd": "其它",
      "dis": "北下关",
      "poiId": 48958,
      "area": "海淀区",
      "deal": 0,
      "distance": 0,
      "follow": 0,
      "sellmin": 0,
      "sell": true,
      "imax": 0,
      "nm": "完美世界影城(17.5四道口店)",
      "preferential": 0,
      "brdId": 0,
      "dealPrice": 0.0,
      "referencePrice": 45.0,
      "showCount": 0,
      "id": 25
    }, {
      "sellPrice": 35.0,
      "lat": 40.037056,
      "lng": 116.370605,
      "ct": "",
      "addr": "海淀区宝盛北里西区28号兴美生活广场5层",
      "brd": "新华国际影城",
      "dis": "",
      "poiId": 2408760,
      "area": "海淀区",
      "deal": 0,
      "distance": 0,
      "follow": 0,
      "sellmin": 0,
      "sell": true,
      "imax": 0,
      "nm": "新华国际影城(宝盛店)",
      "preferential": 0,
      "brdId": 29894,
      "dealPrice": 0.0,
      "referencePrice": 70.0,
      "showCount": 0,
      "id": 5359
    }, {
      "sellPrice": 38.0,
      "lat": 39.96665,
      "lng": 116.34,
      "ct": "",
      "addr": "海淀区北三环西路甲18号大钟寺中坤广场西区3层",
      "brd": "新华国际影城",
      "dis": "大钟寺",
      "poiId": 1524564,
      "area": "海淀区",
      "deal": 0,
      "distance": 0,
      "follow": 0,
      "sellmin": 0,
      "sell": true,
      "imax": 0,
      "nm": "新华国际影城(大钟寺店)",
      "preferential": 0,
      "brdId": 29894,
      "dealPrice": 0.0,
      "referencePrice": 80.0,
      "showCount": 0,
      "id": 1589
    }, {
      "sellPrice": 59.0,
      "lat": 39.95867,
      "lng": 116.2889,
      "ct": "",
      "addr": "海淀区远大路1号金源时代购物中心5楼东首（近蓝靛厂北路）",
      "brd": "星美国际影城",
      "dis": "远大路",
      "poiId": 271447,
      "area": "海淀区",
      "deal": 0,
      "distance": 0,
      "follow": 0,
      "sellmin": 0,
      "sell": true,
      "imax": 1,
      "nm": "星美影商城(金源IMAX店)",
      "preferential": 0,
      "brdId": 30032,
      "dealPrice": 0.0,
      "referencePrice": 35.0,
      "showCount": 0,
      "id": 271
    }, {
      "sellPrice": 43.0,
      "lat": 39.913418,
      "lng": 116.2794,
      "ct": "",
      "addr": "海淀区复兴路69号蓝色港湾购物中心北区5层",
      "brd": "耀莱成龙国际影城",
      "dis": "五棵松",
      "poiId": 335220,
      "area": "海淀区",
      "deal": 0,
      "distance": 0,
      "follow": 0,
      "sellmin": 0,
      "sell": true,
      "imax": 0,
      "nm": "耀莱成龙国际影城(五棵松店)",
      "preferential": 0,
      "brdId": 30227,
      "dealPrice": 0.0,
      "referencePrice": 70.0,
      "showCount": 0,
      "id": 87
    }, {
      "sellPrice": 45.0,
      "lat": 40.042526,
      "lng": 116.18892,
      "ct": "",
      "addr": "海淀区温泉镇北部文化中心D座",
      "brd": "耀莱成龙国际影城",
      "dis": "",
      "poiId": 116256540,
      "area": "海淀区",
      "deal": 0,
      "distance": 0,
      "follow": 0,
      "sellmin": 0,
      "sell": true,
      "imax": 0,
      "nm": "耀莱成龙国际影城(温泉镇店)",
      "preferential": 0,
      "brdId": 30227,
      "dealPrice": 0.0,
      "referencePrice": 0.0,
      "showCount": 0,
      "id": 16285
    }, {
      "sellPrice": 45.0,
      "lat": 39.954147,
      "lng": 116.23201,
      "ct": "",
      "addr": "海淀区杏石口路中间艺术园区内（中间艺术园区内）",
      "brd": "其它",
      "dis": "",
      "poiId": 4572438,
      "area": "海淀区",
      "deal": 0,
      "distance": 0,
      "follow": 0,
      "sellmin": 0,
      "sell": true,
      "imax": 0,
      "nm": "中间影院",
      "preferential": 0,
      "brdId": 0,
      "dealPrice": 0.0,
      "referencePrice": 0.0,
      "showCount": 0,
      "id": 9459
    }, {
      "sellPrice": 34.0,
      "lat": 39.95296,
      "lng": 116.37117,
      "ct": "",
      "addr": "海淀区新街口外大街25号（小西天牌楼北侧）",
      "brd": "中影国际影城",
      "dis": "",
      "poiId": 82594,
      "area": "海淀区",
      "deal": 0,
      "distance": 0,
      "follow": 0,
      "sellmin": 0,
      "sell": true,
      "imax": 0,
      "nm": "中影电影院(小西天店)",
      "preferential": 0,
      "brdId": 23745,
      "dealPrice": 0.0,
      "referencePrice": 0.0,
      "showCount": 0,
      "id": 9916
    }, {
      "sellPrice": 31.0,
      "lat": 39.981472,
      "lng": 116.37021,
      "ct": "",
      "addr": "海淀区花园东路甲16号",
      "brd": "其它",
      "dis": "北太平庄",
      "poiId": 294883,
      "area": "海淀区",
      "deal": 0,
      "distance": 0,
      "follow": 0,
      "sellmin": 0,
      "sell": false,
      "imax": 0,
      "nm": "国安剧院",
      "preferential": 0,
      "brdId": 0,
      "dealPrice": 0.0,
      "referencePrice": 80.0,
      "showCount": 0,
      "id": 251
    }, {
      "sellPrice": 0.0,
      "lat": 39.972046,
      "lng": 116.36422,
      "ct": "",
      "addr": "海淀区花园路甲13号庚坊国际发展中心B1层",
      "brd": "华影国际影城",
      "dis": "",
      "poiId": 4744457,
      "area": "海淀区",
      "deal": 0,
      "distance": 0,
      "follow": 0,
      "sellmin": 0,
      "sell": false,
      "imax": 0,
      "nm": "华影国际影城(花园路店)",
      "preferential": 0,
      "brdId": 271399,
      "dealPrice": 0.0,
      "referencePrice": 0.0,
      "showCount": 0,
      "id": 7985
    }, {
      "sellPrice": 33.0,
      "lat": 39.900352,
      "lng": 116.322586,
      "ct": "",
      "addr": "海淀区羊坊店路18号光耀东方4层",
      "brd": "世茂国际影城",
      "dis": "",
      "poiId": 3251410,
      "area": "海淀区",
      "deal": 0,
      "distance": 0,
      "follow": 0,
      "sellmin": 0,
      "sell": false,
      "imax": 0,
      "nm": "世茂国际影城(羊坊店路店)",
      "preferential": 0,
      "brdId": 28741,
      "dealPrice": 0.0,
      "referencePrice": 0.0,
      "showCount": 0,
      "id": 6483
    }, {
      "sellPrice": 38.0,
      "lat": 39.99351,
      "lng": 116.33939,
      "ct": "",
      "addr": "海淀区成府路23号（近五道口城铁站）",
      "brd": "其它",
      "dis": "五道口",
      "poiId": 82591,
      "area": "海淀区",
      "deal": 0,
      "distance": 0,
      "follow": 0,
      "sellmin": 0,
      "sell": false,
      "imax": 0,
      "nm": "五道口工人俱乐部电影院",
      "preferential": 0,
      "brdId": 0,
      "dealPrice": 0.0,
      "referencePrice": 35.0,
      "showCount": 0,
      "id": 258
    }, {
      "sellPrice": 33.0,
      "lat": 39.953133,
      "lng": 116.36986,
      "ct": "",
      "addr": "海淀区文慧园路3号（北京师范大学、枫蓝国际、积水潭桥、第二炮兵总医院）",
      "brd": "其它",
      "dis": "新街口",
      "poiId": 1541424,
      "area": "海淀区",
      "deal": 0,
      "distance": 0,
      "follow": 0,
      "sellmin": 0,
      "sell": false,
      "imax": 0,
      "nm": "中国电影资料馆",
      "preferential": 0,
      "brdId": 0,
      "dealPrice": 0.0,
      "referencePrice": 0.0,
      "showCount": 0,
      "id": 2010
    }],
    "丰台区": [{
      "sellPrice": 24.0,
      "lat": 39.868313,
      "lng": 116.375984,
      "ct": "",
      "addr": "丰台区开阳路8号悦秀城6层",
      "brd": "其它",
      "dis": "",
      "poiId": 94444126,
      "area": "丰台区",
      "deal": 0,
      "distance": 0,
      "follow": 0,
      "sellmin": 0,
      "sell": true,
      "imax": 0,
      "nm": "DMG国际影城(悦秀店)",
      "preferential": 0,
      "brdId": 0,
      "dealPrice": 0.0,
      "referencePrice": 0.0,
      "showCount": 0,
      "id": 15859
    }, {
      "sellPrice": 34.0,
      "lat": 39.854645,
      "lng": 116.36706,
      "ct": "",
      "addr": "丰台区南三环西路16号凯德大峡谷购物中心5楼",
      "brd": "保利国际影城",
      "dis": "草桥",
      "poiId": 339944,
      "area": "丰台区",
      "deal": 0,
      "distance": 0,
      "follow": 0,
      "sellmin": 0,
      "sell": true,
      "imax": 0,
      "nm": "保利国际影城(凯德MALL·大峡谷店)",
      "preferential": 0,
      "brdId": 24472,
      "dealPrice": 0.0,
      "referencePrice": 40.0,
      "showCount": 0,
      "id": 42
    }, {
      "sellPrice": 29.0,
      "lat": 39.80296,
      "lng": 116.423454,
      "ct": "",
      "addr": "丰台区东高地万源西里航天万源广场5层",
      "brd": "保利国际影城",
      "dis": "东高地",
      "poiId": 299479,
      "area": "丰台区",
      "deal": 0,
      "distance": 0,
      "follow": 0,
      "sellmin": 0,
      "sell": true,
      "imax": 0,
      "nm": "保利国际影城(万源店)",
      "preferential": 0,
      "brdId": 24472,
      "dealPrice": 0.0,
      "referencePrice": 70.0,
      "showCount": 0,
      "id": 129
    }, {
      "sellPrice": 36.0,
      "lat": 39.863983,
      "lng": 116.42227,
      "ct": "",
      "addr": "丰台区蒲黄榆路28号（地铁5号线、14号线C出口）",
      "brd": "博纳国际影城",
      "dis": "方庄",
      "poiId": 82556,
      "area": "丰台区",
      "deal": 0,
      "distance": 0,
      "follow": 0,
      "sellmin": 0,
      "sell": true,
      "imax": 0,
      "nm": "博纳国际影城(方庄店)",
      "preferential": 0,
      "brdId": 24595,
      "dealPrice": 0.0,
      "referencePrice": 80.0,
      "showCount": 0,
      "id": 43
    }, {
      "sellPrice": 38.9,
      "lat": 39.85595,
      "lng": 116.397896,
      "ct": "",
      "addr": "丰台区果园8号楼（木樨园桥西南角）合生广场6层",
      "brd": "大地影院",
      "dis": "",
      "poiId": 78978010,
      "area": "丰台区",
      "deal": 0,
      "distance": 0,
      "follow": 0,
      "sellmin": 0,
      "sell": true,
      "imax": 0,
      "nm": "大地影院(大红门合生广场店)",
      "preferential": 0,
      "brdId": 384262,
      "dealPrice": 0.0,
      "referencePrice": 0.0,
      "showCount": 0,
      "id": 15070
    }, {
      "sellPrice": 23.0,
      "lat": 39.850945,
      "lng": 116.35827,
      "ct": "",
      "addr": "丰台区草桥东路1号上品折扣3层",
      "brd": "其它",
      "dis": "",
      "poiId": 113165716,
      "area": "丰台区",
      "deal": 0,
      "distance": 0,
      "follow": 0,
      "sellmin": 0,
      "sell": true,
      "imax": 0,
      "nm": "东融国际影城(草桥店)",
      "preferential": 0,
      "brdId": 0,
      "dealPrice": 0.0,
      "referencePrice": 0.0,
      "showCount": 0,
      "id": 16458
    }, {
      "sellPrice": 39.0,
      "lat": 39.84446,
      "lng": 116.38594,
      "ct": "",
      "addr": "丰台区马家堡东路101号院10号银泰百货6层ditie10号线角门东站D口",
      "brd": "华谊兄弟影院",
      "dis": "",
      "poiId": 1547150,
      "area": "丰台区",
      "deal": 0,
      "distance": 0,
      "follow": 0,
      "sellmin": 0,
      "sell": true,
      "imax": 1,
      "nm": "华谊兄弟影院(洋桥店)",
      "preferential": 0,
      "brdId": 275830,
      "dealPrice": 0.0,
      "referencePrice": 80.0,
      "showCount": 0,
      "id": 2548
    }, {
      "sellPrice": 26.0,
      "lat": 39.882183,
      "lng": 116.29706,
      "ct": "",
      "addr": "丰台区万丰路（地铁9号线、10号线六里桥站）银座和谐广场购物中心5F",
      "brd": "其它",
      "dis": "",
      "poiId": 133660718,
      "area": "丰台区",
      "deal": 0,
      "distance": 0,
      "follow": 0,
      "sellmin": 0,
      "sell": true,
      "imax": 1,
      "nm": "恒业影城北京IMAX店",
      "preferential": 0,
      "brdId": 0,
      "dealPrice": 0.0,
      "referencePrice": 0.0,
      "showCount": 0,
      "id": 16638
    }, {
      "sellPrice": 34.0,
      "lat": 39.866352,
      "lng": 116.30482,
      "ct": "",
      "addr": "丰台区丰台北路18号（地铁10号线、14号线西局站）恒泰广场E座6层",
      "brd": "其它",
      "dis": "",
      "poiId": 125611088,
      "area": "丰台区",
      "deal": 0,
      "distance": 0,
      "follow": 0,
      "sellmin": 0,
      "sell": true,
      "imax": 0,
      "nm": "莱纳恒泰影城",
      "preferential": 0,
      "brdId": 0,
      "dealPrice": 0.0,
      "referencePrice": 0.0,
      "showCount": 0,
      "id": 16683
    }, {
      "sellPrice": 33.0,
      "lat": 39.851784,
      "lng": 116.28421,
      "ct": "",
      "addr": "丰台区西四环南路86号",
      "brd": "其它",
      "dis": "",
      "poiId": 271414,
      "area": "丰台区",
      "deal": 0,
      "distance": 0,
      "follow": 0,
      "sellmin": 0,
      "sell": true,
      "imax": 0,
      "nm": "青少年剧场",
      "preferential": 0,
      "brdId": 0,
      "dealPrice": 0.0,
      "referencePrice": 0.0,
      "showCount": 0,
      "id": 4542
    }, {
      "sellPrice": 41.5,
      "lat": 39.824207,
      "lng": 116.29894,
      "ct": "",
      "addr": "丰台区丰科路6号万达广场6层",
      "brd": "万达影城",
      "dis": "",
      "poiId": 122443680,
      "area": "丰台区",
      "deal": 0,
      "distance": 0,
      "follow": 0,
      "sellmin": 0,
      "sell": true,
      "imax": 0,
      "nm": "万达影城(丰台店)",
      "preferential": 0,
      "brdId": 102642,
      "dealPrice": 0.0,
      "referencePrice": 0.0,
      "showCount": 0,
      "id": 16655
    }, {
      "sellPrice": 35.5,
      "lat": 39.81384,
      "lng": 116.36806,
      "ct": "",
      "addr": "丰台区槐房南路6号院万达广场4层",
      "brd": "万达影城",
      "dis": "",
      "poiId": 131412291,
      "area": "丰台区",
      "deal": 0,
      "distance": 0,
      "follow": 0,
      "sellmin": 0,
      "sell": true,
      "imax": 1,
      "nm": "万达影城(槐房店)",
      "preferential": 0,
      "brdId": 102642,
      "dealPrice": 0.0,
      "referencePrice": 0.0,
      "showCount": 0,
      "id": 16657
    }, {
      "sellPrice": 35.5,
      "lat": 39.86019,
      "lng": 116.35838,
      "ct": "",
      "addr": "丰台区西铁营中路1号万达广场七层万达影城",
      "brd": "万达影城",
      "dis": "",
      "poiId": 164912365,
      "area": "丰台区",
      "deal": 0,
      "distance": 0,
      "follow": 0,
      "sellmin": 0,
      "sell": true,
      "imax": 1,
      "nm": "万达影城(西铁营万达广场店)",
      "preferential": 0,
      "brdId": 102642,
      "dealPrice": 0.0,
      "referencePrice": 0.0,
      "showCount": 0,
      "id": 24580
    }, {
      "sellPrice": 33.0,
      "lat": 39.8405,
      "lng": 116.41459,
      "ct": "",
      "addr": "丰台区光彩路京港城生活广场6楼（京深海鲜市场对面）",
      "brd": "其它",
      "dis": "",
      "poiId": 156648558,
      "area": "丰台区",
      "deal": 0,
      "distance": 0,
      "follow": 0,
      "sellmin": 0,
      "sell": true,
      "imax": 0,
      "nm": "万达影院(京港城店)",
      "preferential": 0,
      "brdId": 0,
      "dealPrice": 0.0,
      "referencePrice": 0.0,
      "showCount": 0,
      "id": 17280
    }, {
      "sellPrice": 29.9,
      "lat": 39.87874,
      "lng": 116.31261,
      "ct": "",
      "addr": "丰台区西三环南路10号月恒正大新生活广场三层",
      "brd": "其它",
      "dis": "",
      "poiId": 165605811,
      "area": "丰台区",
      "deal": 0,
      "distance": 0,
      "follow": 0,
      "sellmin": 0,
      "sell": true,
      "imax": 0,
      "nm": "星空影城(六里桥店)",
      "preferential": 0,
      "brdId": 0,
      "dealPrice": 0.0,
      "referencePrice": 0.0,
      "showCount": 0,
      "id": 24963
    }, {
      "sellPrice": 36.0,
      "lat": 39.857136,
      "lng": 116.44611,
      "ct": "",
      "addr": "丰台区南三环东路成寿寺路2号新业广场2楼",
      "brd": "星美国际影城",
      "dis": "方庄",
      "poiId": 1436294,
      "area": "丰台区",
      "deal": 0,
      "distance": 0,
      "follow": 0,
      "sellmin": 0,
      "sell": true,
      "imax": 0,
      "nm": "星美国际影商城(分钟寺店)",
      "preferential": 0,
      "brdId": 30032,
      "dealPrice": 0.0,
      "referencePrice": 35.0,
      "showCount": 0,
      "id": 9
    }, {
      "sellPrice": 36.0,
      "lat": 39.82602,
      "lng": 116.3231,
      "ct": "",
      "addr": "丰台区南四环西路76号北京花乡奥莱村第十三号楼三层四层",
      "brd": "耀莱成龙国际影城",
      "dis": "",
      "poiId": 163970546,
      "area": "丰台区",
      "deal": 0,
      "distance": 0,
      "follow": 0,
      "sellmin": 0,
      "sell": true,
      "imax": 0,
      "nm": "耀莱成龙国际影城(花乡店)",
      "preferential": 0,
      "brdId": 30227,
      "dealPrice": 0.0,
      "referencePrice": 0.0,
      "showCount": 0,
      "id": 24263
    }, {
      "sellPrice": 23.0,
      "lat": 39.872055,
      "lng": 116.30988,
      "ct": "",
      "addr": "丰台区西三环南路甲27号居然之家5层",
      "brd": "其它",
      "dis": "",
      "poiId": 170668636,
      "area": "丰台区",
      "deal": 0,
      "distance": 0,
      "follow": 0,
      "sellmin": 0,
      "sell": true,
      "imax": 0,
      "nm": "耀莱成龙影城(丽泽桥店)",
      "preferential": 0,
      "brdId": 0,
      "dealPrice": 0.0,
      "referencePrice": 0.0,
      "showCount": 0,
      "id": 25288
    }, {
      "sellPrice": 33.0,
      "lat": 39.845528,
      "lng": 116.43179,
      "ct": "",
      "addr": "丰台区宋家庄顺八条4号政馨园三区5号楼底商正华商城地下一层（宋家庄地铁B出口）",
      "brd": "其它",
      "dis": "方庄",
      "poiId": 82600,
      "area": "丰台区",
      "deal": 0,
      "distance": 0,
      "follow": 0,
      "sellmin": 0,
      "sell": true,
      "imax": 0,
      "nm": "正华影城",
      "preferential": 0,
      "brdId": 0,
      "dealPrice": 0.0,
      "referencePrice": 60.0,
      "showCount": 0,
      "id": 63
    }, {
      "sellPrice": 34.0,
      "lat": 39.889786,
      "lng": 116.287766,
      "ct": "",
      "addr": "丰台区靛场路千禧商业街4号楼",
      "brd": "中影国际影城",
      "dis": "",
      "poiId": 6458108,
      "area": "丰台区",
      "deal": 0,
      "distance": 0,
      "follow": 0,
      "sellmin": 0,
      "sell": true,
      "imax": 0,
      "nm": "中影国际影城(丰台千禧街店)",
      "preferential": 0,
      "brdId": 23745,
      "dealPrice": 0.0,
      "referencePrice": 30.0,
      "showCount": 0,
      "id": 7634
    }, {
      "sellPrice": 34.0,
      "lat": 39.817265,
      "lng": 116.292496,
      "ct": "",
      "addr": "丰台区丰葆路永旺梦乐城4层",
      "brd": "中影国际影城",
      "dis": "",
      "poiId": 77423086,
      "area": "丰台区",
      "deal": 0,
      "distance": 0,
      "follow": 0,
      "sellmin": 0,
      "sell": true,
      "imax": 0,
      "nm": "中影国际影城(丰台永旺店)",
      "preferential": 0,
      "brdId": 23745,
      "dealPrice": 0.0,
      "referencePrice": 0.0,
      "showCount": 0,
      "id": 14384
    }, {
      "sellPrice": 26.9,
      "lat": 39.84191,
      "lng": 116.423386,
      "ct": "",
      "addr": "丰台区榴乡路88号院石榴中心斯坦福广场B1层",
      "brd": "中影国际影城",
      "dis": "",
      "poiId": 150259374,
      "area": "丰台区",
      "deal": 0,
      "distance": 0,
      "follow": 0,
      "sellmin": 0,
      "sell": true,
      "imax": 0,
      "nm": "中影国际影城(石榴中心店)",
      "preferential": 0,
      "brdId": 23745,
      "dealPrice": 0.0,
      "referencePrice": 0.0,
      "showCount": 0,
      "id": 16832
    }, {
      "sellPrice": 31.0,
      "lat": 39.836674,
      "lng": 116.37848,
      "ct": "",
      "addr": "丰台区角门路19号院2号楼华冠天地4层（原大万广场）",
      "brd": "幸福蓝海国际影城",
      "dis": "",
      "poiId": 5161700,
      "area": "丰台区",
      "deal": 0,
      "distance": 0,
      "follow": 0,
      "sellmin": 0,
      "sell": false,
      "imax": 0,
      "nm": "幸福蓝海国际影城(北京公益桥店)",
      "preferential": 0,
      "brdId": 30053,
      "dealPrice": 0.0,
      "referencePrice": 0.0,
      "showCount": 0,
      "id": 8578
    }],
    "大兴区": [{
      "sellPrice": 44.0,
      "lat": 39.79085,
      "lng": 116.51305,
      "ct": "",
      "addr": "大兴区经济技术开发区荣京东街大族广场9号楼三层",
      "brd": "CGV影城",
      "dis": "",
      "poiId": 105355906,
      "area": "大兴区",
      "deal": 0,
      "distance": 0,
      "follow": 0,
      "sellmin": 0,
      "sell": true,
      "imax": 0,
      "nm": "CGV影城(亦庄店)",
      "preferential": 0,
      "brdId": 2020418,
      "dealPrice": 0.0,
      "referencePrice": 0.0,
      "showCount": 0,
      "id": 16152
    }, {
      "sellPrice": 24.0,
      "lat": 39.687492,
      "lng": 116.3205,
      "ct": "",
      "addr": "大兴区永兴路7号院1号楼3F-Z2",
      "brd": "SFC上影影城",
      "dis": "",
      "poiId": 96251713,
      "area": "大兴区",
      "deal": 0,
      "distance": 0,
      "follow": 0,
      "sellmin": 0,
      "sell": true,
      "imax": 1,
      "nm": "SFC上影影城(大兴龙湖IMAX店)",
      "preferential": 0,
      "brdId": 2880988,
      "dealPrice": 0.0,
      "referencePrice": 0.0,
      "showCount": 0,
      "id": 15915
    }, {
      "sellPrice": 34.0,
      "lat": 39.76452,
      "lng": 116.33412,
      "ct": "",
      "addr": "大兴区金星西路3号绿地缤纷城东岸4层",
      "brd": "保利国际影城",
      "dis": "绿地缤纷城",
      "poiId": 1481117,
      "area": "大兴区",
      "deal": 0,
      "distance": 0,
      "follow": 0,
      "sellmin": 0,
      "sell": true,
      "imax": 0,
      "nm": "保利国际影城(绿地缤纷城店)",
      "preferential": 0,
      "brdId": 24472,
      "dealPrice": 0.0,
      "referencePrice": 70.0,
      "showCount": 0,
      "id": 2392
    }, {
      "sellPrice": 43.0,
      "lat": 39.810543,
      "lng": 116.50511,
      "ct": "",
      "addr": "大兴区亦庄经济开发区文化园东路6号创意生活广场三层",
      "brd": "其它",
      "dis": "亦庄",
      "poiId": 82601,
      "area": "大兴区",
      "deal": 0,
      "distance": 0,
      "follow": 0,
      "sellmin": 0,
      "sell": true,
      "imax": 0,
      "nm": "大料国际影城(创意生活广场店)",
      "preferential": 0,
      "brdId": 0,
      "dealPrice": 0.0,
      "referencePrice": 80.0,
      "showCount": 0,
      "id": 34
    }, {
      "sellPrice": 33.0,
      "lat": 39.7323,
      "lng": 116.338005,
      "ct": "",
      "addr": "大兴区黄村西大街15号",
      "brd": "其它",
      "dis": "黄村",
      "poiId": 324698,
      "area": "大兴区",
      "deal": 0,
      "distance": 0,
      "follow": 0,
      "sellmin": 0,
      "sell": true,
      "imax": 0,
      "nm": "大兴影剧院",
      "preferential": 0,
      "brdId": 0,
      "dealPrice": 0.0,
      "referencePrice": 21.0,
      "showCount": 0,
      "id": 179
    }, {
      "sellPrice": 28.0,
      "lat": 39.814774,
      "lng": 116.454636,
      "ct": "",
      "addr": "大兴区旧宫小红门路39号",
      "brd": "嘉美国际影城",
      "dis": "",
      "poiId": 6685358,
      "area": "大兴区",
      "deal": 0,
      "distance": 0,
      "follow": 0,
      "sellmin": 0,
      "sell": true,
      "imax": 0,
      "nm": "嘉美国际影城(旧宫店)",
      "preferential": 0,
      "brdId": 352923,
      "dealPrice": 0.0,
      "referencePrice": 70.0,
      "showCount": 0,
      "id": 2598
    }, {
      "sellPrice": 39.0,
      "lat": 39.78818,
      "lng": 116.328415,
      "ct": "",
      "addr": "大兴区欣宁街15号荟聚购物中心H区3层",
      "brd": "金逸影城",
      "dis": "",
      "poiId": 40697227,
      "area": "大兴区",
      "deal": 0,
      "distance": 0,
      "follow": 0,
      "sellmin": 0,
      "sell": true,
      "imax": 1,
      "nm": "金逸影城(荟聚IMAX店)",
      "preferential": 0,
      "brdId": 1079568,
      "dealPrice": 0.0,
      "referencePrice": 0.0,
      "showCount": 0,
      "id": 10987
    }, {
      "sellPrice": 36.0,
      "lat": 39.80576,
      "lng": 116.460175,
      "ct": "",
      "addr": "大兴区忠凉路万科广场5层（地铁旧宫站）",
      "brd": "卢米埃影城",
      "dis": "",
      "poiId": 93511270,
      "area": "大兴区",
      "deal": 0,
      "distance": 0,
      "follow": 0,
      "sellmin": 0,
      "sell": true,
      "imax": 0,
      "nm": "卢米埃影城(住总万科店)",
      "preferential": 0,
      "brdId": 292030,
      "dealPrice": 0.0,
      "referencePrice": 0.0,
      "showCount": 0,
      "id": 15773
    }, {
      "sellPrice": 28.0,
      "lat": 39.816402,
      "lng": 116.52133,
      "ct": "",
      "addr": "大兴区开羊路18号院1号楼3层明星时代影城",
      "brd": "其它",
      "dis": "",
      "poiId": 164152307,
      "area": "大兴区",
      "deal": 0,
      "distance": 0,
      "follow": 0,
      "sellmin": 0,
      "sell": true,
      "imax": 0,
      "nm": "明星时代影城(远洋天著店)",
      "preferential": 0,
      "brdId": 0,
      "dealPrice": 0.0,
      "referencePrice": 0.0,
      "showCount": 0,
      "id": 24295
    }, {
      "sellPrice": 44.0,
      "lat": 39.805244,
      "lng": 116.50277,
      "ct": "",
      "addr": "大兴区经济技术开发区荣华中路8号院华联力宝购物中心四层",
      "brd": "其它",
      "dis": "",
      "poiId": 5165994,
      "area": "大兴区",
      "deal": 0,
      "distance": 0,
      "follow": 0,
      "sellmin": 0,
      "sell": true,
      "imax": 0,
      "nm": "唐阁影城(亦庄店)",
      "preferential": 0,
      "brdId": 0,
      "dealPrice": 0.0,
      "referencePrice": 0.0,
      "showCount": 0,
      "id": 11132
    }, {
      "sellPrice": 39.0,
      "lat": 39.72971,
      "lng": 116.34167,
      "ct": "",
      "addr": "大兴区黄村东大街火神庙国际商业中心E座5层",
      "brd": "新华国际影城",
      "dis": "黄村",
      "poiId": 86394,
      "area": "大兴区",
      "deal": 0,
      "distance": 0,
      "follow": 0,
      "sellmin": 0,
      "sell": true,
      "imax": 0,
      "nm": "新华国际影城(大兴店)",
      "preferential": 0,
      "brdId": 29894,
      "dealPrice": 0.0,
      "referencePrice": 40.0,
      "showCount": 0,
      "id": 11
    }, {
      "sellPrice": 26.0,
      "lat": 39.799633,
      "lng": 116.33217,
      "ct": "",
      "addr": "大兴区西红门镇京良路10号乐家购物中心B区3层",
      "brd": "星美国际影城",
      "dis": "",
      "poiId": 2490890,
      "area": "大兴区",
      "deal": 0,
      "distance": 0,
      "follow": 0,
      "sellmin": 0,
      "sell": true,
      "imax": 0,
      "nm": "星美国际影商城(西红门店)",
      "preferential": 0,
      "brdId": 30032,
      "dealPrice": 0.0,
      "referencePrice": 70.0,
      "showCount": 0,
      "id": 6057
    }, {
      "sellPrice": 33.0,
      "lat": 39.791393,
      "lng": 116.340256,
      "ct": "",
      "addr": "大兴区欣旺北大街8号鸿坤广场6层（地铁4号线西红门站Ｂ口向东４００米路北）",
      "brd": "耀莱成龙国际影城",
      "dis": "",
      "poiId": 41278576,
      "area": "大兴区",
      "deal": 0,
      "distance": 0,
      "follow": 0,
      "sellmin": 0,
      "sell": true,
      "imax": 0,
      "nm": "耀莱成龙国际影城(西红门店)",
      "preferential": 0,
      "brdId": 30227,
      "dealPrice": 0.0,
      "referencePrice": 0.0,
      "showCount": 0,
      "id": 11082
    }, {
      "sellPrice": 43.0,
      "lat": 39.803543,
      "lng": 116.53282,
      "ct": "",
      "addr": "大兴区科创五街38号城乡世纪广场C座3层F3-C3006",
      "brd": "其它",
      "dis": "",
      "poiId": 93839693,
      "area": "大兴区",
      "deal": 0,
      "distance": 0,
      "follow": 0,
      "sellmin": 0,
      "sell": true,
      "imax": 0,
      "nm": "中传国际影城(亦庄店)",
      "preferential": 0,
      "brdId": 0,
      "dealPrice": 0.0,
      "referencePrice": 0.0,
      "showCount": 0,
      "id": 15294
    }, {
      "sellPrice": 33.9,
      "lat": 39.73894,
      "lng": 116.33174,
      "ct": "",
      "addr": "大兴区兴华大街百联清城购物中心3层北侧",
      "brd": "其它",
      "dis": "",
      "poiId": 95968537,
      "area": "大兴区",
      "deal": 0,
      "distance": 0,
      "follow": 0,
      "sellmin": 0,
      "sell": true,
      "imax": 0,
      "nm": "最影城",
      "preferential": 0,
      "brdId": 0,
      "dealPrice": 0.0,
      "referencePrice": 0.0,
      "showCount": 0,
      "id": 15018
    }, {
      "sellPrice": 23.9,
      "lat": 39.81873,
      "lng": 116.421776,
      "ct": "",
      "addr": "大兴区旧宫镇久敬庄路世界之花假日广场5层",
      "brd": "其它",
      "dis": "",
      "poiId": 170879964,
      "area": "大兴区",
      "deal": 0,
      "distance": 0,
      "follow": 0,
      "sellmin": 0,
      "sell": true,
      "imax": 0,
      "nm": "自由人影城(世界之花假日广场店)",
      "preferential": 0,
      "brdId": 0,
      "dealPrice": 0.0,
      "referencePrice": 0.0,
      "showCount": 0,
      "id": 25290
    }, {
      "sellPrice": 0.0,
      "lat": 39.629345,
      "lng": 116.38453,
      "ct": "",
      "addr": "大兴区东大路多维创新园内",
      "brd": "其它",
      "dis": "",
      "poiId": 51400779,
      "area": "大兴区",
      "deal": 0,
      "distance": 0,
      "follow": 0,
      "sellmin": 0,
      "sell": false,
      "imax": 0,
      "nm": "玫瑰之约汽车影院(半壁店)",
      "preferential": 0,
      "brdId": 0,
      "dealPrice": 0.0,
      "referencePrice": 0.0,
      "showCount": 0,
      "id": 14054
    }],
    "东城区": [{
      "sellPrice": 39.5,
      "lat": 39.966072,
      "lng": 116.41096,
      "ct": "",
      "addr": "东城区北三环东路36号环球贸易中心E座1层",
      "brd": "UME国际影城",
      "dis": "安贞",
      "poiId": 94496,
      "area": "东城区",
      "deal": 0,
      "distance": 0,
      "follow": 0,
      "sellmin": 0,
      "sell": true,
      "imax": 0,
      "nm": "UME国际影城(安贞店)",
      "preferential": 0,
      "brdId": 24071,
      "dealPrice": 0.0,
      "referencePrice": 70.0,
      "showCount": 0,
      "id": 99
    }, {
      "sellPrice": 45.0,
      "lat": 39.9152,
      "lng": 116.42129,
      "ct": "",
      "addr": "东城区金宝街88号金宝汇购物中心一期7层",
      "brd": "其它",
      "dis": "王府井",
      "poiId": 1076058,
      "area": "东城区",
      "deal": 0,
      "distance": 0,
      "follow": 0,
      "sellmin": 0,
      "sell": true,
      "imax": 0,
      "nm": "百丽宫影城(金宝汇店)",
      "preferential": 0,
      "brdId": 0,
      "dealPrice": 0.0,
      "referencePrice": 80.0,
      "showCount": 0,
      "id": 122
    }, {
      "sellPrice": 45.0,
      "lat": 39.950455,
      "lng": 116.43878,
      "ct": "",
      "addr": "东城区香河园路1号当代MOMA北区T4座（近东直门公交枢纽）",
      "brd": "百老汇影城",
      "dis": "东直门",
      "poiId": 1076062,
      "area": "东城区",
      "deal": 0,
      "distance": 0,
      "follow": 0,
      "sellmin": 0,
      "sell": true,
      "imax": 0,
      "nm": "百老汇电影中心(万国城店)",
      "preferential": 0,
      "brdId": 24377,
      "dealPrice": 0.0,
      "referencePrice": 80.0,
      "showCount": 0,
      "id": 94
    }, {
      "sellPrice": 42.0,
      "lat": 39.915234,
      "lng": 116.411415,
      "ct": "",
      "addr": "东城区王府井大街138号北京apm6层",
      "brd": "百老汇影城",
      "dis": "王府井",
      "poiId": 271444,
      "area": "东城区",
      "deal": 0,
      "distance": 0,
      "follow": 0,
      "sellmin": 0,
      "sell": true,
      "imax": 0,
      "nm": "百老汇影城(apm购物中心店)",
      "preferential": 0,
      "brdId": 24377,
      "dealPrice": 0.0,
      "referencePrice": 70.0,
      "showCount": 0,
      "id": 267
    }, {
      "sellPrice": 37.0,
      "lat": 39.90987,
      "lng": 116.41683,
      "ct": "",
      "addr": "东城区东长安街1号东方广场地下1层",
      "brd": "百老汇影城",
      "dis": "王府井",
      "poiId": 271409,
      "area": "东城区",
      "deal": 0,
      "distance": 0,
      "follow": 0,
      "sellmin": 0,
      "sell": true,
      "imax": 0,
      "nm": "百老汇影城(东方广场店)",
      "preferential": 0,
      "brdId": 24377,
      "dealPrice": 0.0,
      "referencePrice": 40.0,
      "showCount": 0,
      "id": 269
    }, {
      "sellPrice": 45.0,
      "lat": 39.897575,
      "lng": 116.420135,
      "ct": "",
      "addr": "东城区崇文门外大街18号国瑞城购物中心首层/-2层",
      "brd": "百老汇影城",
      "dis": "崇文门",
      "poiId": 1048975,
      "area": "东城区",
      "deal": 0,
      "distance": 0,
      "follow": 0,
      "sellmin": 0,
      "sell": true,
      "imax": 0,
      "nm": "百老汇影城(国瑞购物中心店)",
      "preferential": 0,
      "brdId": 24377,
      "dealPrice": 0.0,
      "referencePrice": 80.0,
      "showCount": 0,
      "id": 119
    }, {
      "sellPrice": 28.0,
      "lat": 39.89956,
      "lng": 116.41363,
      "ct": "",
      "addr": "东城区东打磨厂街7号新活馆B1层",
      "brd": "其它",
      "dis": "",
      "poiId": 1460422,
      "area": "东城区",
      "deal": 0,
      "distance": 0,
      "follow": 0,
      "sellmin": 0,
      "sell": true,
      "imax": 0,
      "nm": "传奇奢华影城",
      "preferential": 0,
      "brdId": 0,
      "dealPrice": 0.0,
      "referencePrice": 0.0,
      "showCount": 0,
      "id": 16605
    }, {
      "sellPrice": 31.0,
      "lat": 39.9253,
      "lng": 116.41552,
      "ct": "",
      "addr": "东城区隆福寺街47号东四工人文化宫",
      "brd": "其它",
      "dis": "东四",
      "poiId": 60166,
      "area": "东城区",
      "deal": 0,
      "distance": 0,
      "follow": 0,
      "sellmin": 0,
      "sell": true,
      "imax": 0,
      "nm": "东宫影剧院",
      "preferential": 0,
      "brdId": 0,
      "dealPrice": 0.0,
      "referencePrice": 30.0,
      "showCount": 0,
      "id": 242
    }, {
      "sellPrice": 38.0,
      "lat": 39.936527,
      "lng": 116.43607,
      "ct": "",
      "addr": "东城区东中街9号东环广场B座B1楼",
      "brd": "其它",
      "dis": "东直门",
      "poiId": 43786,
      "area": "东城区",
      "deal": 0,
      "distance": 0,
      "follow": 0,
      "sellmin": 0,
      "sell": true,
      "imax": 0,
      "nm": "东环影城",
      "preferential": 0,
      "brdId": 0,
      "dealPrice": 0.0,
      "referencePrice": 80.0,
      "showCount": 0,
      "id": 265
    }, {
      "sellPrice": 31.0,
      "lat": 39.91224,
      "lng": 116.41179,
      "ct": "",
      "addr": "东城区王府井大街255号北京市百货大楼北馆8层",
      "brd": "横店电影城",
      "dis": "王府井",
      "poiId": 1549949,
      "area": "东城区",
      "deal": 0,
      "distance": 0,
      "follow": 0,
      "sellmin": 0,
      "sell": true,
      "imax": 0,
      "nm": "横店电影城(王府井店)",
      "preferential": 0,
      "brdId": 26045,
      "dealPrice": 0.0,
      "referencePrice": 70.0,
      "showCount": 0,
      "id": 79
    }, {
      "sellPrice": 48.0,
      "lat": 39.9512,
      "lng": 116.42075,
      "ct": "",
      "addr": "东城区滨河路乙1号雍和航星园74-76号楼",
      "brd": "其它",
      "dis": "",
      "poiId": 99389254,
      "area": "东城区",
      "deal": 0,
      "distance": 0,
      "follow": 0,
      "sellmin": 0,
      "sell": true,
      "imax": 0,
      "nm": "青春光线电影院",
      "preferential": 0,
      "brdId": 0,
      "dealPrice": 0.0,
      "referencePrice": 0.0,
      "showCount": 0,
      "id": 15280
    }, {
      "sellPrice": 53.0,
      "lat": 39.940186,
      "lng": 116.432465,
      "ct": "",
      "addr": "东城区东直门来福士购物中心5层",
      "brd": "其它",
      "dis": "",
      "poiId": 165735819,
      "area": "东城区",
      "deal": 0,
      "distance": 0,
      "follow": 0,
      "sellmin": 0,
      "sell": true,
      "imax": 0,
      "nm": "三克影院(来福士店)",
      "preferential": 0,
      "brdId": 0,
      "dealPrice": 0.0,
      "referencePrice": 0.0,
      "showCount": 0,
      "id": 25125
    }, {
      "sellPrice": 28.0,
      "lat": 39.896397,
      "lng": 116.419266,
      "ct": "",
      "addr": "东城区崇外大街40号搜秀城9层",
      "brd": "搜秀影城",
      "dis": "崇文门",
      "poiId": 82579,
      "area": "东城区",
      "deal": 0,
      "distance": 0,
      "follow": 0,
      "sellmin": 0,
      "sell": true,
      "imax": 0,
      "nm": "搜秀影城",
      "preferential": 0,
      "brdId": 28916,
      "dealPrice": 0.0,
      "referencePrice": 80.0,
      "showCount": 0,
      "id": 270
    }, {
      "sellPrice": 40.0,
      "lat": 39.90973,
      "lng": 116.41075,
      "ct": "",
      "addr": "东城区王府井大街301号新燕莎金街购物广场地下1层MB124",
      "brd": "耀莱成龙国际影城",
      "dis": "",
      "poiId": 6074394,
      "area": "东城区",
      "deal": 0,
      "distance": 0,
      "follow": 0,
      "sellmin": 0,
      "sell": true,
      "imax": 0,
      "nm": "耀莱成龙国际影城(王府井店)",
      "preferential": 0,
      "brdId": 30227,
      "dealPrice": 0.0,
      "referencePrice": 0.0,
      "showCount": 0,
      "id": 10781
    }, {
      "sellPrice": 0.0,
      "lat": 39.903954,
      "lng": 116.4272,
      "ct": "",
      "addr": "东城区毛家湾胡同甲13号站西侧3层",
      "brd": "其它",
      "dis": "",
      "poiId": 52795616,
      "area": "东城区",
      "deal": 0,
      "distance": 0,
      "follow": 0,
      "sellmin": 0,
      "sell": false,
      "imax": 0,
      "nm": "北京站电影院",
      "preferential": 0,
      "brdId": 0,
      "dealPrice": 0.0,
      "referencePrice": 0.0,
      "showCount": 0,
      "id": 14472
    }, {
      "sellPrice": 0.0,
      "lat": 39.941,
      "lng": 116.413,
      "ct": "",
      "addr": "东城区交道口东大街85号区图书馆1楼",
      "brd": "其它",
      "dis": "东四",
      "poiId": 271413,
      "area": "东城区",
      "deal": 0,
      "distance": 0,
      "follow": 0,
      "sellmin": 0,
      "sell": false,
      "imax": 0,
      "nm": "东城图书馆影剧院",
      "preferential": 0,
      "brdId": 0,
      "dealPrice": 0.0,
      "referencePrice": 0.0,
      "showCount": 0,
      "id": 4541
    }],
    "西城区": [{
      "sellPrice": 24.0,
      "lat": 39.89703,
      "lng": 116.39432,
      "ct": "",
      "addr": "西城区煤市街廊房头条交叉口东北角北京坊东区B1-B2层",
      "brd": "保利国际影城",
      "dis": "",
      "poiId": 150609037,
      "area": "西城区",
      "deal": 0,
      "distance": 0,
      "follow": 0,
      "sellmin": 0,
      "sell": true,
      "imax": 0,
      "nm": "保利国际影城(天安门店)",
      "preferential": 0,
      "brdId": 24472,
      "dealPrice": 0.0,
      "referencePrice": 0.0,
      "showCount": 0,
      "id": 17023
    }, {
      "sellPrice": 31.0,
      "lat": 39.8719,
      "lng": 116.36495,
      "ct": "",
      "addr": "西城区万博苑王府井购物中心五楼",
      "brd": "其它",
      "dis": "",
      "poiId": 162727173,
      "area": "西城区",
      "deal": 0,
      "distance": 0,
      "follow": 0,
      "sellmin": 0,
      "sell": true,
      "imax": 0,
      "nm": "保利万和影城(右安门店)",
      "preferential": 0,
      "brdId": 0,
      "dealPrice": 0.0,
      "referencePrice": 0.0,
      "showCount": 0,
      "id": 24061
    }, {
      "sellPrice": 34.0,
      "lat": 39.895596,
      "lng": 116.39515,
      "ct": "",
      "addr": "西城区前门大街大栅栏街36号",
      "brd": "其它",
      "dis": "大栅栏",
      "poiId": 89010,
      "area": "西城区",
      "deal": 0,
      "distance": 0,
      "follow": 0,
      "sellmin": 0,
      "sell": true,
      "imax": 0,
      "nm": "大观楼电影院",
      "preferential": 0,
      "brdId": 0,
      "dealPrice": 0.0,
      "referencePrice": 60.0,
      "showCount": 0,
      "id": 263
    }, {
      "sellPrice": 38.0,
      "lat": 39.922535,
      "lng": 116.371346,
      "ct": "",
      "addr": "西城区西四羊肉胡同30号（中国地质博物馆南侧）",
      "brd": "其它",
      "dis": "西四",
      "poiId": 89006,
      "area": "西城区",
      "deal": 0,
      "distance": 0,
      "follow": 0,
      "sellmin": 0,
      "sell": true,
      "imax": 0,
      "nm": "地质礼堂",
      "preferential": 0,
      "brdId": 0,
      "dealPrice": 0.0,
      "referencePrice": 50.0,
      "showCount": 0,
      "id": 261
    }, {
      "sellPrice": 34.0,
      "lat": 39.88407,
      "lng": 116.35917,
      "ct": "",
      "addr": "西城区白广路8号",
      "brd": "其它",
      "dis": "广内大街",
      "poiId": 82592,
      "area": "西城区",
      "deal": 0,
      "distance": 0,
      "follow": 0,
      "sellmin": 0,
      "sell": true,
      "imax": 0,
      "nm": "广安门电影院",
      "preferential": 0,
      "brdId": 0,
      "dealPrice": 0.0,
      "referencePrice": 40.0,
      "showCount": 0,
      "id": 247
    }, {
      "sellPrice": 33.0,
      "lat": 39.913624,
      "lng": 116.34325,
      "ct": "",
      "addr": "西城区月坛南街24号西城区工人文化宫西侧",
      "brd": "其它",
      "dis": "月坛",
      "poiId": 274294,
      "area": "西城区",
      "deal": 0,
      "distance": 0,
      "follow": 0,
      "sellmin": 0,
      "sell": true,
      "imax": 0,
      "nm": "国宾菁英电影院",
      "preferential": 0,
      "brdId": 0,
      "dealPrice": 0.0,
      "referencePrice": 40.0,
      "showCount": 0,
      "id": 255
    }, {
      "sellPrice": 33.0,
      "lat": 39.888065,
      "lng": 116.38378,
      "ct": "",
      "addr": "西城区虎坊路口南7号",
      "brd": "其它",
      "dis": "虎坊桥",
      "poiId": 1436438,
      "area": "西城区",
      "deal": 0,
      "distance": 0,
      "follow": 0,
      "sellmin": 0,
      "sell": true,
      "imax": 0,
      "nm": "工人俱乐部电影院",
      "preferential": 0,
      "brdId": 0,
      "dealPrice": 0.0,
      "referencePrice": 60.0,
      "showCount": 0,
      "id": 237
    }, {
      "sellPrice": 44.0,
      "lat": 39.9151,
      "lng": 116.36,
      "ct": "",
      "addr": "西城区金城坊街2号金融街购物中心2期B1层",
      "brd": "首都电影院",
      "dis": "复兴门",
      "poiId": 1541415,
      "area": "西城区",
      "deal": 0,
      "distance": 0,
      "follow": 0,
      "sellmin": 0,
      "sell": true,
      "imax": 0,
      "nm": "首都电影院(金融街店)",
      "preferential": 0,
      "brdId": 1162239,
      "dealPrice": 0.0,
      "referencePrice": 80.0,
      "showCount": 0,
      "id": 1625
    }, {
      "sellPrice": 32.0,
      "lat": 39.91066,
      "lng": 116.373665,
      "ct": "",
      "addr": "西城区西单北大街131号大悦城10楼（近西单苹果店）",
      "brd": "首都电影院",
      "dis": "西单",
      "poiId": 283722,
      "area": "西城区",
      "deal": 0,
      "distance": 0,
      "follow": 0,
      "sellmin": 0,
      "sell": true,
      "imax": 0,
      "nm": "首都电影院(西单店)",
      "preferential": 0,
      "brdId": 1162239,
      "dealPrice": 0.0,
      "referencePrice": 60.0,
      "showCount": 0,
      "id": 149
    }, {
      "sellPrice": 34.0,
      "lat": 39.884457,
      "lng": 116.39819,
      "ct": "",
      "addr": "西城区天桥南大街3号楼一层、二层",
      "brd": "其它",
      "dis": "",
      "poiId": 93439511,
      "area": "西城区",
      "deal": 0,
      "distance": 0,
      "follow": 0,
      "sellmin": 0,
      "sell": true,
      "imax": 0,
      "nm": "首都电影院(中华店)",
      "preferential": 0,
      "brdId": 0,
      "dealPrice": 0.0,
      "referencePrice": 0.0,
      "showCount": 0,
      "id": 15270
    }, {
      "sellPrice": 43.0,
      "lat": 39.913937,
      "lng": 116.341034,
      "ct": "",
      "addr": "西城区月坛南街30号万方西单商场",
      "brd": "其它",
      "dis": "",
      "poiId": 166012764,
      "area": "西城区",
      "deal": 0,
      "distance": 0,
      "follow": 0,
      "sellmin": 0,
      "sell": true,
      "imax": 0,
      "nm": "晟嘉国际影城(西单万方店)",
      "preferential": 0,
      "brdId": 0,
      "dealPrice": 0.0,
      "referencePrice": 0.0,
      "showCount": 0,
      "id": 25163
    }, {
      "sellPrice": 40.0,
      "lat": 39.947483,
      "lng": 116.371185,
      "ct": "",
      "addr": "西城区新街口北大街1号新华百货5层",
      "brd": "其它",
      "dis": "",
      "poiId": 165629027,
      "area": "西城区",
      "deal": 0,
      "distance": 0,
      "follow": 0,
      "sellmin": 0,
      "sell": true,
      "imax": 0,
      "nm": "晟嘉国际影城(新华百货店)",
      "preferential": 0,
      "brdId": 0,
      "dealPrice": 0.0,
      "referencePrice": 0.0,
      "showCount": 0,
      "id": 25061
    }, {
      "sellPrice": 25.0,
      "lat": 39.877083,
      "lng": 116.325325,
      "ct": "",
      "addr": "西城区马连道路25号新年华生活购物广场5层",
      "brd": "耀莱成龙国际影城",
      "dis": "",
      "poiId": 2393654,
      "area": "西城区",
      "deal": 0,
      "distance": 0,
      "follow": 0,
      "sellmin": 0,
      "sell": true,
      "imax": 0,
      "nm": "耀莱成龙国际影城(马连道店)",
      "preferential": 0,
      "brdId": 30227,
      "dealPrice": 0.0,
      "referencePrice": 70.0,
      "showCount": 0,
      "id": 5278
    }, {
      "sellPrice": 38.0,
      "lat": 39.93531,
      "lng": 116.35955,
      "ct": "",
      "addr": "西城区西直门南小街68号",
      "brd": "其它",
      "dis": "西直门",
      "poiId": 271434,
      "area": "西城区",
      "deal": 0,
      "distance": 0,
      "follow": 0,
      "sellmin": 0,
      "sell": false,
      "imax": 0,
      "nm": "北京青年宫",
      "preferential": 0,
      "brdId": 0,
      "dealPrice": 0.0,
      "referencePrice": 50.0,
      "showCount": 0,
      "id": 260
    }, {
      "sellPrice": 0.0,
      "lat": 39.94392,
      "lng": 116.37328,
      "ct": "",
      "addr": "西城区新街口北大街74号（近北京科学教育电影制片厂院内）",
      "brd": "其它",
      "dis": "",
      "poiId": 73944402,
      "area": "西城区",
      "deal": 0,
      "distance": 0,
      "follow": 0,
      "sellmin": 0,
      "sell": false,
      "imax": 0,
      "nm": "剧空间剧场",
      "preferential": 0,
      "brdId": 0,
      "dealPrice": 0.0,
      "referencePrice": 0.0,
      "showCount": 0,
      "id": 14387
    }],
    "通州区": [{
      "sellPrice": 23.0,
      "lat": 39.919525,
      "lng": 116.677376,
      "ct": "",
      "addr": "通州区永顺镇芙蓉园513号楼",
      "brd": "其它",
      "dis": "",
      "poiId": 99968119,
      "area": "通州区",
      "deal": 0,
      "distance": 0,
      "follow": 0,
      "sellmin": 0,
      "sell": true,
      "imax": 0,
      "nm": "北京东融国际影城(月亮河店)",
      "preferential": 0,
      "brdId": 0,
      "dealPrice": 0.0,
      "referencePrice": 0.0,
      "showCount": 0,
      "id": 15421
    }, {
      "sellPrice": 34.0,
      "lat": 39.903496,
      "lng": 116.6367,
      "ct": "",
      "addr": "通州区杨庄北里52号华联天时名苑购物中心4楼（近通州北苑地铁站）",
      "brd": "博纳国际影城",
      "dis": "新华联",
      "poiId": 363447,
      "area": "通州区",
      "deal": 0,
      "distance": 0,
      "follow": 0,
      "sellmin": 0,
      "sell": true,
      "imax": 0,
      "nm": "博纳国际影城(通州北苑店)",
      "preferential": 0,
      "brdId": 24595,
      "dealPrice": 0.0,
      "referencePrice": 80.0,
      "showCount": 0,
      "id": 2
    }, {
      "sellPrice": 29.0,
      "lat": 39.86987,
      "lng": 116.697586,
      "ct": "",
      "addr": "通州区八通线土桥地铁站向东900米华远好天地购物中心3层（迪卡侬通州店）",
      "brd": "博纳国际影城",
      "dis": "",
      "poiId": 51455681,
      "area": "通州区",
      "deal": 0,
      "distance": 0,
      "follow": 0,
      "sellmin": 0,
      "sell": true,
      "imax": 0,
      "nm": "博纳国际影城(通州土桥店)",
      "preferential": 0,
      "brdId": 24595,
      "dealPrice": 0.0,
      "referencePrice": 0.0,
      "showCount": 0,
      "id": 14381
    }, {
      "sellPrice": 36.0,
      "lat": 39.752598,
      "lng": 116.54536,
      "ct": "",
      "addr": "通州区马驹桥镇百尚生活广场3楼",
      "brd": "其它",
      "dis": "",
      "poiId": 2371476,
      "area": "通州区",
      "deal": 0,
      "distance": 0,
      "follow": 0,
      "sellmin": 0,
      "sell": true,
      "imax": 0,
      "nm": "百尚影城",
      "preferential": 0,
      "brdId": 0,
      "dealPrice": 0.0,
      "referencePrice": 0.0,
      "showCount": 0,
      "id": 6227
    }, {
      "sellPrice": 38.9,
      "lat": 39.760002,
      "lng": 116.54555,
      "ct": "",
      "addr": "通州区马驹桥新海东路1号（豪润生活广场7层）",
      "brd": "大地影院",
      "dis": "",
      "poiId": 6151046,
      "area": "通州区",
      "deal": 0,
      "distance": 0,
      "follow": 0,
      "sellmin": 0,
      "sell": true,
      "imax": 0,
      "nm": "大地影院(米拉店)",
      "preferential": 0,
      "brdId": 384262,
      "dealPrice": 0.0,
      "referencePrice": 0.0,
      "showCount": 0,
      "id": 8301
    }, {
      "sellPrice": 38.0,
      "lat": 39.799076,
      "lng": 116.56583,
      "ct": "",
      "addr": "通州区台湖镇定海园二里15号楼新城商厦4层",
      "brd": "其它",
      "dis": "",
      "poiId": 131682620,
      "area": "通州区",
      "deal": 0,
      "distance": 0,
      "follow": 0,
      "sellmin": 0,
      "sell": true,
      "imax": 0,
      "nm": "华夏天合国际影城",
      "preferential": 0,
      "brdId": 0,
      "dealPrice": 0.0,
      "referencePrice": 0.0,
      "showCount": 0,
      "id": 16680
    }, {
      "sellPrice": 37.0,
      "lat": 39.891575,
      "lng": 116.68774,
      "ct": "",
      "addr": "通州区运河西大街乔庄卜蜂莲花超市一层（近吉野家）",
      "brd": "其它",
      "dis": "",
      "poiId": 4800806,
      "area": "通州区",
      "deal": 0,
      "distance": 0,
      "follow": 0,
      "sellmin": 0,
      "sell": true,
      "imax": 0,
      "nm": "米瑞酷影城(乔庄店)",
      "preferential": 0,
      "brdId": 0,
      "dealPrice": 0.0,
      "referencePrice": 0.0,
      "showCount": 0,
      "id": 8654
    }, {
      "sellPrice": 23.0,
      "lat": 39.912743,
      "lng": 116.66441,
      "ct": "",
      "addr": "通州区西海子西塔胡同1号",
      "brd": "其它",
      "dis": "德外大街",
      "poiId": 82560,
      "area": "通州区",
      "deal": 0,
      "distance": 0,
      "follow": 0,
      "sellmin": 0,
      "sell": true,
      "imax": 0,
      "nm": "通州区电影院",
      "preferential": 0,
      "brdId": 0,
      "dealPrice": 0.0,
      "referencePrice": 60.0,
      "showCount": 0,
      "id": 178
    }, {
      "sellPrice": 45.5,
      "lat": 39.905937,
      "lng": 116.64272,
      "ct": "",
      "addr": "通州区新华西街58号万达广场1号楼5层（厨艺宾馆对面）",
      "brd": "万达影城",
      "dis": "",
      "poiId": 41521114,
      "area": "通州区",
      "deal": 0,
      "distance": 0,
      "follow": 0,
      "sellmin": 0,
      "sell": true,
      "imax": 1,
      "nm": "万达国际影城(通州万达店)",
      "preferential": 0,
      "brdId": 102642,
      "dealPrice": 0.0,
      "referencePrice": 0.0,
      "showCount": 0,
      "id": 10837
    }, {
      "sellPrice": 45.5,
      "lat": 39.88967,
      "lng": 116.659225,
      "ct": "",
      "addr": "通州区翠景北里21号京通罗斯福广场5F",
      "brd": "其它",
      "dis": "",
      "poiId": 6139543,
      "area": "通州区",
      "deal": 0,
      "distance": 0,
      "follow": 0,
      "sellmin": 0,
      "sell": true,
      "imax": 0,
      "nm": "万达影城(银兴光魔店)",
      "preferential": 0,
      "brdId": 0,
      "dealPrice": 0.0,
      "referencePrice": 0.0,
      "showCount": 0,
      "id": 10964
    }, {
      "sellPrice": 33.0,
      "lat": 39.88119,
      "lng": 116.68255,
      "ct": "",
      "addr": "通州区临河里33号楼华业玫瑰商业中心D2号楼三层",
      "brd": "耀莱成龙国际影城",
      "dis": "",
      "poiId": 92950934,
      "area": "通州区",
      "deal": 0,
      "distance": 0,
      "follow": 0,
      "sellmin": 0,
      "sell": true,
      "imax": 0,
      "nm": "耀莱成龙国际影城(临河里店)",
      "preferential": 0,
      "brdId": 30227,
      "dealPrice": 0.0,
      "referencePrice": 0.0,
      "showCount": 0,
      "id": 14634
    }],
    "房山区": [{
      "sellPrice": 38.0,
      "lat": 39.72994,
      "lng": 116.14175,
      "ct": "",
      "addr": "房山区拱辰南大街瑞城广场7F",
      "brd": "其它",
      "dis": "",
      "poiId": 5677585,
      "area": "房山区",
      "deal": 0,
      "distance": 0,
      "follow": 0,
      "sellmin": 0,
      "sell": true,
      "imax": 0,
      "nm": "DMG国际影城(良乡店)",
      "preferential": 0,
      "brdId": 0,
      "dealPrice": 0.0,
      "referencePrice": 0.0,
      "showCount": 0,
      "id": 16058
    }, {
      "sellPrice": 24.0,
      "lat": 39.756683,
      "lng": 116.160515,
      "ct": "",
      "addr": "房山区黄辛庄路口绿地缤纷城3层",
      "brd": "SFC上影影城",
      "dis": "",
      "poiId": 52294367,
      "area": "房山区",
      "deal": 0,
      "distance": 0,
      "follow": 0,
      "sellmin": 0,
      "sell": true,
      "imax": 0,
      "nm": "SFC上影影城(房山绿地店)",
      "preferential": 0,
      "brdId": 2880988,
      "dealPrice": 0.0,
      "referencePrice": 0.0,
      "showCount": 0,
      "id": 13618
    }, {
      "sellPrice": 38.0,
      "lat": 39.69285,
      "lng": 115.98708,
      "ct": "",
      "addr": "房山区兴房大街38号华冠欢乐城四楼",
      "brd": "其它",
      "dis": "",
      "poiId": 5252975,
      "area": "房山区",
      "deal": 0,
      "distance": 0,
      "follow": 0,
      "sellmin": 0,
      "sell": true,
      "imax": 0,
      "nm": "环球国际影城(北京房山店)",
      "preferential": 0,
      "brdId": 0,
      "dealPrice": 0.0,
      "referencePrice": 0.0,
      "showCount": 0,
      "id": 9370
    }, {
      "sellPrice": 33.0,
      "lat": 39.76338,
      "lng": 116.213234,
      "ct": "",
      "addr": "房山区长阳地铁站南侧京投港购物中心5层",
      "brd": "其它",
      "dis": "",
      "poiId": 152404744,
      "area": "房山区",
      "deal": 0,
      "distance": 0,
      "follow": 0,
      "sellmin": 0,
      "sell": true,
      "imax": 0,
      "nm": "乐糖影城(房山店)",
      "preferential": 0,
      "brdId": 0,
      "dealPrice": 0.0,
      "referencePrice": 0.0,
      "showCount": 0,
      "id": 17169
    }, {
      "sellPrice": 13.0,
      "lat": 39.73799,
      "lng": 116.141685,
      "ct": "",
      "addr": "房山区良乡拱辰大街31号",
      "brd": "其它",
      "dis": "房山",
      "poiId": 1436368,
      "area": "房山区",
      "deal": 0,
      "distance": 0,
      "follow": 0,
      "sellmin": 0,
      "sell": true,
      "imax": 0,
      "nm": "良乡影剧院",
      "preferential": 0,
      "brdId": 0,
      "dealPrice": 0.0,
      "referencePrice": 30.0,
      "showCount": 0,
      "id": 145
    }, {
      "sellPrice": 31.0,
      "lat": 39.728836,
      "lng": 116.14166,
      "ct": "",
      "addr": "房山区拱辰南大街7号院1号楼良辰百货4层",
      "brd": "其它",
      "dis": "",
      "poiId": 169653614,
      "area": "房山区",
      "deal": 0,
      "distance": 0,
      "follow": 0,
      "sellmin": 0,
      "sell": true,
      "imax": 0,
      "nm": "咪咚影院(良乡店)",
      "preferential": 0,
      "brdId": 0,
      "dealPrice": 0.0,
      "referencePrice": 0.0,
      "showCount": 0,
      "id": 25256
    }, {
      "sellPrice": 35.5,
      "lat": 39.753548,
      "lng": 116.21099,
      "ct": "",
      "addr": "房山区广阳新路9号院1号楼中粮万科半岛购物广场3层",
      "brd": "幸福蓝海国际影城",
      "dis": "",
      "poiId": 40470614,
      "area": "房山区",
      "deal": 0,
      "distance": 0,
      "follow": 0,
      "sellmin": 0,
      "sell": true,
      "imax": 0,
      "nm": "幸福蓝海国际影城(北京房山店)",
      "preferential": 0,
      "brdId": 30053,
      "dealPrice": 0.0,
      "referencePrice": 0.0,
      "showCount": 0,
      "id": 13028
    }, {
      "sellPrice": 39.0,
      "lat": 39.73469,
      "lng": 116.13953,
      "ct": "",
      "addr": "房山区良乡北关西路14号华冠购物中心五层（良乡医院对面）",
      "brd": "新华国际影城",
      "dis": "房山",
      "poiId": 299222,
      "area": "房山区",
      "deal": 0,
      "distance": 0,
      "follow": 0,
      "sellmin": 0,
      "sell": true,
      "imax": 0,
      "nm": "新华国际影城(房山店)",
      "preferential": 0,
      "brdId": 29894,
      "dealPrice": 0.0,
      "referencePrice": 60.0,
      "showCount": 0,
      "id": 131
    }, {
      "sellPrice": 33.0,
      "lat": 39.728977,
      "lng": 115.96135,
      "ct": "",
      "addr": "房山区燕山岗南路3号（近燕山石化公司）",
      "brd": "其它",
      "dis": "房山",
      "poiId": 271449,
      "area": "房山区",
      "deal": 0,
      "distance": 0,
      "follow": 0,
      "sellmin": 0,
      "sell": true,
      "imax": 0,
      "nm": "燕山影剧院",
      "preferential": 0,
      "brdId": 0,
      "dealPrice": 0.0,
      "referencePrice": 35.0,
      "showCount": 0,
      "id": 60
    }, {
      "sellPrice": 0.0,
      "lat": 39.72558,
      "lng": 115.96181,
      "ct": "",
      "addr": "房山区迎风街道岗南路9号",
      "brd": "其它",
      "dis": "",
      "poiId": 99082156,
      "area": "房山区",
      "deal": 0,
      "distance": 0,
      "follow": 0,
      "sellmin": 0,
      "sell": false,
      "imax": 0,
      "nm": "北京燕山文化活动中心影院",
      "preferential": 0,
      "brdId": 0,
      "dealPrice": 0.0,
      "referencePrice": 0.0,
      "showCount": 0,
      "id": 15272
    }],
    "昌平区": [{
      "sellPrice": 38.9,
      "lat": 40.066605,
      "lng": 116.34672,
      "ct": "",
      "addr": "昌平区黄平路19号院3号楼龙旗广场购物中心3层（地铁8号线育新站路北600米，近永辉超市）",
      "brd": "保利国际影城",
      "dis": "回龙观",
      "poiId": 3320660,
      "area": "昌平区",
      "deal": 0,
      "distance": 0,
      "follow": 0,
      "sellmin": 0,
      "sell": true,
      "imax": 0,
      "nm": "保利国际影城(龙旗广场店)",
      "preferential": 0,
      "brdId": 24472,
      "dealPrice": 0.0,
      "referencePrice": 100.0,
      "showCount": 0,
      "id": 5502
    }, {
      "sellPrice": 34.0,
      "lat": 40.223534,
      "lng": 116.23402,
      "ct": "",
      "addr": "昌平区鼓楼南大街6号佳莲时代广场4楼（近鼓楼西街）",
      "brd": "其它",
      "dis": "昌平镇",
      "poiId": 361208,
      "area": "昌平区",
      "deal": 0,
      "distance": 0,
      "follow": 0,
      "sellmin": 0,
      "sell": true,
      "imax": 0,
      "nm": "昌平保利影剧院(佳莲时代广场店)",
      "preferential": 0,
      "brdId": 0,
      "dealPrice": 0.0,
      "referencePrice": 80.0,
      "showCount": 0,
      "id": 50
    }, {
      "sellPrice": 29.9,
      "lat": 40.222176,
      "lng": 116.264755,
      "ct": "",
      "addr": "昌平区昌崔路203号果岭假日广场四楼",
      "brd": "大地影院",
      "dis": "昌平镇",
      "poiId": 1432377,
      "area": "昌平区",
      "deal": 0,
      "distance": 0,
      "follow": 0,
      "sellmin": 0,
      "sell": true,
      "imax": 0,
      "nm": "大地影院(昌平菓岭店)",
      "preferential": 0,
      "brdId": 384262,
      "dealPrice": 0.0,
      "referencePrice": 40.0,
      "showCount": 0,
      "id": 66
    }, {
      "sellPrice": 34.0,
      "lat": 40.2124,
      "lng": 116.24026,
      "ct": "",
      "addr": "昌平区南环路10号院1号楼悦荟万科广场8层",
      "brd": "首都电影院",
      "dis": "",
      "poiId": 373237,
      "area": "昌平区",
      "deal": 0,
      "distance": 0,
      "follow": 0,
      "sellmin": 0,
      "sell": true,
      "imax": 0,
      "nm": "首都电影院(悦荟万科广场店)",
      "preferential": 0,
      "brdId": 1162239,
      "dealPrice": 0.0,
      "referencePrice": 0.0,
      "showCount": 0,
      "id": 8186
    }, {
      "sellPrice": 45.5,
      "lat": 40.060596,
      "lng": 116.41618,
      "ct": "",
      "addr": "昌平区立汤路186号龙德广场5层",
      "brd": "万达影城",
      "dis": "天通苑",
      "poiId": 30864,
      "area": "昌平区",
      "deal": 0,
      "distance": 0,
      "follow": 0,
      "sellmin": 0,
      "sell": true,
      "imax": 1,
      "nm": "万达国际影城(龙德广场店)",
      "preferential": 0,
      "brdId": 102642,
      "dealPrice": 0.0,
      "referencePrice": 80.0,
      "showCount": 0,
      "id": 151
    }, {
      "sellPrice": 39.0,
      "lat": 40.071976,
      "lng": 116.33717,
      "ct": "",
      "addr": "昌平区回龙观同成街华联购物中心四楼（城铁回龙观站出口对面）",
      "brd": "沃美影城",
      "dis": "",
      "poiId": 4058821,
      "area": "昌平区",
      "deal": 0,
      "distance": 0,
      "follow": 0,
      "sellmin": 0,
      "sell": true,
      "imax": 0,
      "nm": "沃美影城(回龙观店)",
      "preferential": 0,
      "brdId": 29462,
      "dealPrice": 0.0,
      "referencePrice": 0.0,
      "showCount": 0,
      "id": 9647
    }, {
      "sellPrice": 31.0,
      "lat": 40.07596,
      "lng": 116.31944,
      "ct": "",
      "addr": "昌平区回龙观西大街111号华联商场3楼",
      "brd": "星美国际影城",
      "dis": "回龙观",
      "poiId": 286187,
      "area": "昌平区",
      "deal": 0,
      "distance": 0,
      "follow": 0,
      "sellmin": 0,
      "sell": true,
      "imax": 0,
      "nm": "星美国际影商城(回龙观店)",
      "preferential": 0,
      "brdId": 30032,
      "dealPrice": 0.0,
      "referencePrice": 40.0,
      "showCount": 0,
      "id": 140
    }, {
      "sellPrice": 39.0,
      "lat": 40.09749,
      "lng": 116.28857,
      "ct": "",
      "addr": "昌平区北清路1号永旺国际商城3楼",
      "brd": "中影国际影城",
      "dis": "回龙观",
      "poiId": 82598,
      "area": "昌平区",
      "deal": 0,
      "distance": 0,
      "follow": 0,
      "sellmin": 0,
      "sell": true,
      "imax": 0,
      "nm": "中影国际影城(昌平永旺店)",
      "preferential": 0,
      "brdId": 23745,
      "dealPrice": 0.0,
      "referencePrice": 23.0,
      "showCount": 0,
      "id": 107
    }, {
      "sellPrice": 43.0,
      "lat": 40.10411,
      "lng": 116.370514,
      "ct": "",
      "addr": "昌平区北七家镇温都水城广场4-5层",
      "brd": "其它",
      "dis": "",
      "poiId": 165628212,
      "area": "昌平区",
      "deal": 0,
      "distance": 0,
      "follow": 0,
      "sellmin": 0,
      "sell": true,
      "imax": 0,
      "nm": "中影星美国际影城(温都水城店)",
      "preferential": 0,
      "brdId": 0,
      "dealPrice": 0.0,
      "referencePrice": 0.0,
      "showCount": 0,
      "id": 25016
    }],
    "顺义区": [{
      "sellPrice": 50.0,
      "lat": 40.128777,
      "lng": 116.652794,
      "ct": "",
      "addr": "顺义区新顺南大街8号华联购物中心4层",
      "brd": "CGV影城",
      "dis": "",
      "poiId": 6448554,
      "area": "顺义区",
      "deal": 0,
      "distance": 0,
      "follow": 0,
      "sellmin": 0,
      "sell": true,
      "imax": 0,
      "nm": "CGV星聚汇影城(顺义店)",
      "preferential": 0,
      "brdId": 2020418,
      "dealPrice": 0.0,
      "referencePrice": 0.0,
      "showCount": 0,
      "id": 8111
    }, {
      "sellPrice": 50.0,
      "lat": 40.126575,
      "lng": 116.65212,
      "ct": "",
      "addr": "顺义区新顺南大街18号新世界百货七层",
      "brd": "博纳国际影城",
      "dis": "顺义",
      "poiId": 1437402,
      "area": "顺义区",
      "deal": 0,
      "distance": 0,
      "follow": 0,
      "sellmin": 0,
      "sell": true,
      "imax": 0,
      "nm": "博纳国际影城(顺义店)",
      "preferential": 0,
      "brdId": 24595,
      "dealPrice": 0.0,
      "referencePrice": 70.0,
      "showCount": 0,
      "id": 69
    },